;site_code;site_name;value_amount;lon;lat;name_map
0;20046;им.Э.Т.Кренкеля;17184;58.058889;80.626389;им.Э.Т.Кренкеля (20046) кол-во измерений:17184
1;20107;Баренцбург;27452;;;Баренцбург (20107) кол-во измерений:27452
2;20674;остров Диксон;29143;80.400003;73.513611;остров Диксон (20674) кол-во измерений:29143
3;20891;Хатанга;30178;102.47;71.98;Хатанга (20891) кол-во измерений:30178
4;20946;им.Е.К.Федорова;18359;59.091111;70.446669;им.Е.К.Федорова (20946) кол-во измерений:18359
5;20967;Сеяха;26555;72.513611;70.170003;Сеяха (20967) кол-во измерений:26555
6;20973;Кресты Таймыр.;17106;89.9;70.87;Кресты Таймыр. (20973) кол-во измерений:17106
7;20978;Караул;18906;83.1667;70.0833;Караул (20978) кол-во измерений:18906
8;20982;Волочанка;27573;;;Волочанка (20982) кол-во измерений:27573
9;21432;о. Котельный;28797;137.8666667;76.0;о. Котельный (21432) кол-во измерений:28797
10;21535;Пролив Санникова;19633;138.89999;74.66666;Пролив Санникова (21535) кол-во измерений:19633
11;21636;Мыс Кигилях;17324;139.8688965;73.33583069;Мыс Кигилях (21636) кол-во измерений:17324
12;21721;Столб(Им.Хабарова);14008;126.34999999999998;72.4;Столб(Им.Хабарова) (21721) кол-во измерений:14008
13;21802;Саскылах;27966;114.08;71.97;Саскылах (21802) кол-во измерений:27966
14;21813;Тюмети;17203;123.56667000000002;71.91666;Тюмети (21813) кол-во измерений:17203
15;21824;Тикси,бухта;26214;128.9166667;71.58333333;Тикси,бухта (21824) кол-во измерений:26214
16;21908;Джалинда;25352;113.966667;70.133333;Джалинда (21908) кол-во измерений:25352
17;21921;Кюсюр;30169;127.4;70.68333333000001;Кюсюр (21921) кол-во измерений:30169
18;21931;Юбилейная;26434;136.2166667;70.76666667;Юбилейная (21931) кол-во измерений:26434
19;21946;Чокурдах;25992;147.896389;70.622222;Чокурдах (21946) кол-во измерений:25992
20;21978;Валькаркай;19460;170.9252778;70.08388889;Валькаркай (21978) кол-во измерений:19460
21;21982;О.Врангеля;32224;181.35;70.98333333;О.Врангеля (21982) кол-во измерений:32224
22;22003;Вайда-Губа;28379;31.98;69.93;Вайда-Губа (22003) кол-во измерений:28379
23;22004;Никель;20093;30.23;69.4;Никель (22004) кол-во измерений:20093
24;22009;Перевал;16448;31.4;69.2;Перевал (22009) кол-во измерений:16448
25;22012;Цып-Наволок;25909;33.048935;69.72013;Цып-Наволок (22012) кол-во измерений:25909
26;22018;Ура-Губа;18500;32.8;69.28;Ура-Губа (22018) кол-во измерений:18500
27;22019;Полярное;26465;33.48;69.2;Полярное (22019) кол-во измерений:26465
28;22028;Териберка;35816;35.12;69.2;Териберка (22028) кол-во измерений:35816
29;22100;Верховье р.Лотты;18547;28.899999999999995;68.5;Верховье р.Лотты (22100) кол-во измерений:18547
30;22101;Янискоски;18107;28.78;68.97;Янискоски (22101) кол-во измерений:18107
31;22105;Ниванкюль;19633;30.729999999999997;68.35;Ниванкюль (22105) кол-во измерений:19633
32;22106;Падун;27793;31.8;68.6;Падун (22106) кол-во измерений:27793
33;22113;Мурманск;28803;33.05;68.97;Мурманск (22113) кол-во измерений:28803
34;22127;Ловозеро;27201;35.03;68.0;Ловозеро (22127) кол-во измерений:27201
35;22140;Святой Нос;33829;39.77;68.15;Святой Нос (22140) кол-во измерений:33829
36;22165;Канин Нос;34705;43.2875;68.655281;Канин Нос (22165) кол-во измерений:34705
37;22193;Бугрино;19635;49.301111;68.780278;Бугрино (22193) кол-во измерений:19635
38;22204;Ковдор;19456;30.45;67.57;Ковдор (22204) кол-во измерений:19456
39;22212;Мончегорск;27327;32.95;67.93;Мончегорск (22212) кол-во измерений:27327
40;22214;Зашеек;27854;32.55;67.4;Зашеек (22214) кол-во измерений:27854
41;22217;Кандалакша;37179;32.35;67.15;Кандалакша (22217) кол-во измерений:37179
42;22235;Краснощелье;29393;37.05;67.35;Краснощелье (22235) кол-во измерений:29393
43;22249;Каневка;19047;39.67;67.13;Каневка (22249) кол-во измерений:19047
44;22271;Шойна;20514;44.174169;67.876667;Шойна (22271) кол-во измерений:20514
45;22292;Индига;32480;48.683611;67.689169;Индига (22292) кол-во измерений:32480
46;22302;Зареченск;18024;31.4;66.7;Зареченск (22302) кол-во измерений:18024
47;22312;Ковда;26920;32.88;66.7;Ковда (22312) кол-во измерений:26920
48;22324;Умба;26459;34.35;66.68;Умба (22324) кол-во измерений:26459
49;22334;Кашкаранцы;18619;36.02;66.33;Кашкаранцы (22334) кол-во измерений:18619
50;22339;Чаваньга;18140;37.75;66.1;Чаваньга (22339) кол-во измерений:18140
51;22349;Пялица;26694;39.53;66.18;Пялица (22349) кол-во измерений:26694
52;22355;Сосновец;34446;;;Сосновец (22355) кол-во измерений:34446
53;22365;Абрамовский Маяк;19172;43.2675;66.408889;Абрамовский Маяк (22365) кол-во измерений:19172
54;22375;Несь;19967;44.695;66.607222;Несь (22375) кол-во измерений:19967
55;22383;Нижняя Пеша;25593;47.77;66.75;Нижняя Пеша (22383) кол-во измерений:25593
56;22408;Калевала;26863;31.15;65.22;Калевала (22408) кол-во измерений:26863
57;22413;Энгозеро;17763;33.941083;65.790139;Энгозеро (22413) кол-во измерений:17763
58;22422;Гридино;26533;34.759722;65.898611;Гридино (22422) кол-во измерений:26533
59;22429;Соловки;27669;35.695833;65.031389;Соловки (22429) кол-во измерений:27669
60;22456;Кепино;19535;41.881111;65.3825;Кепино (22456) кол-во измерений:19535
61;22471;Мезень;17812;44.22;65.87;Мезень (22471) кол-во измерений:17812
62;22481;Мосеево;19871;46.2;65.77;Мосеево (22481) кол-во измерений:19871
63;22511;Юшкозеро;20408;32.12;64.75;Юшкозеро (22511) кол-во измерений:20408
64;22525;Разнаволок;27720;34.91;64.56;Разнаволок (22525) кол-во измерений:27720
65;22529;Колежма;26746;35.867917;64.238722;Колежма (22529) кол-во измерений:26746
66;22541;Унский Маяк;27675;38.36388899999999;64.844722;Унский Маяк (22541) кол-во измерений:27675
67;22546;Северодвинск;20031;39.765558;64.555278;Северодвинск (22546) кол-во измерений:20031
68;22550;Архангельск;41168;40.727778;64.5;Архангельск (22550) кол-во измерений:41168
69;22551;Мудьюг остров;19948;40.280281;64.853056;Мудьюг остров (22551) кол-во измерений:19948
70;22559;Холмогоры;20448;41.646667;64.223889;Холмогоры (22559) кол-во измерений:20448
71;22563;Пинега;28177;43.38;64.7;Пинега (22563) кол-во измерений:28177
72;22573;Лешуконское;19831;45.77;64.9;Лешуконское (22573) кол-во измерений:19831
73;22583;Койнас;35778;47.65;64.75;Койнас (22583) кол-во измерений:35778
74;22602;Реболы;26495;30.82;63.82999999999999;Реболы (22602) кол-во измерений:26495
75;22619;Паданы;17885;;;Паданы (22619) кол-во измерений:17885
76;22621;Сегежа;17734;34.28;63.77000000000001;Сегежа (22621) кол-во измерений:17734
77;22638;Калгачиха;19356;36.710003;63.326947000000004;Калгачиха (22638) кол-во измерений:19356
78;22641;Онега;28491;38.108611;63.906667;Онега (22641) кол-во измерений:28491
79;22648;Турчасово;19784;39.236944;63.110833;Турчасово (22648) кол-во измерений:19784
80;22656;Емецк;20435;41.795833;63.480000000000004;Емецк (22656) кол-во измерений:20435
81;22671;Карпогоры;19925;44.449447;64.010556;Карпогоры (22671) кол-во измерений:19925
82;22676;Сура;20450;45.623336;63.578889;Сура (22676) кол-во измерений:20450
83;22686;Вендинга;28839;47.92;63.44277799999999;Вендинга (22686) кол-во измерений:28839
84;22695;Кослан;19718;48.92;63.45;Кослан (22695) кол-во измерений:19718
85;22707;Вяртсиля;25300;30.68;62.18;Вяртсиля (22707) кол-во измерений:25300
86;22721;Медвежьегорск;27564;34.43;62.92;Медвежьегорск (22721) кол-во измерений:27564
87;22727;Кондопога;27160;34.3;62.17;Кондопога (22727) кол-во измерений:27160
88;22749;Конево;19690;39.291111;62.104444;Конево (22749) кол-во измерений:19690
89;22762;Двинской Березник;20629;42.791944;62.828333;Двинской Березник (22762) кол-во измерений:20629
90;22768;Шенкурск;34833;42.890278;62.11416700000001;Шенкурск (22768) кол-во измерений:34833
91;22778;Верхняя Тойма;20420;45.03;62.22999999999999;Верхняя Тойма (22778) кол-во измерений:20420
92;22781;Окуловская;20100;46.6;62.9;Окуловская (22781) кол-во измерений:20100
93;22798;Яренск;28267;49.109444;62.171558;Яренск (22798) кол-во измерений:28267
94;22802;Сортавала;25488;30.72;61.71999999999999;Сортавала (22802) кол-во измерений:25488
95;22805;Валаам;24648;30.88;61.37;Валаам (22805) кол-во измерений:24648
96;22806;Лесогорский;20145;28.93;61.03;Лесогорский (22806) кол-во измерений:20145
97;22820;Петрозаводск;27442;34.27;61.82;Петрозаводск (22820) кол-во измерений:27442
98;22831;Пудож;28040;36.58;61.82;Пудож (22831) кол-во измерений:28040
99;22837;Вытегра;33926;36.455556;61.016944;Вытегра (22837) кол-во измерений:33926
100;22845;Каргополь;36372;38.93;61.5;Каргополь (22845) кол-во измерений:36372
101;22854;Няндома;20166;40.195278;61.670003;Няндома (22854) кол-во измерений:20166
102;22867;Вельск;27982;42.069444;61.069306;Вельск (22867) кол-во измерений:27982
103;22869;Шангалы;20350;43.35;61.13;Шангалы (22869) кол-во измерений:20350
104;22876;Красноборск;19172;45.938611;61.549167;Красноборск (22876) кол-во измерений:19172
105;22887;Котлас;28854;46.72;61.23;Котлас (22887) кол-во измерений:28854
106;22889;Вилегодское;19341;47.993892;61.104167;Вилегодское (22889) кол-во измерений:19341
107;22892;Лух;25320;42.26;57.01;Лух (22892) кол-во измерений:25320
108;22912;Олонец;27306;32.98;60.98;Олонец (22912) кол-во измерений:27306
109;22913;Лодейное поле;20123;33.55;60.720000000000006;Лодейное поле (22913) кол-во измерений:20123
110;22917;Новая Ладога;20172;32.32;60.12;Новая Ладога (22917) кол-во измерений:20172
111;22925;Винницы;17872;34.78;60.63;Винницы (22925) кол-во измерений:17872
112;22939;Белозерск;20011;37.759167;60.020278000000005;Белозерск (22939) кол-во измерений:20011
113;22944;Чарозеро;20002;38.62;60.47;Чарозеро (22944) кол-во измерений:20002
114;22951;Коноша;19935;40.27;60.980000000000004;Коноша (22951) кол-во измерений:19935
115;22954;Вожега;19638;40.208333;60.474722;Вожега (22954) кол-во измерений:19638
116;22974;Нюксеница;19934;44.2225;60.413333;Нюксеница (22974) кол-во измерений:19934
117;22981;Великий Устюг;19790;46.3;60.77;Великий Устюг (22981) кол-во измерений:19790
118;22996;Объячево;28296;49.635556;60.328611;Объячево (22996) кол-во измерений:28296
119;23022;Амдерма;28742;61.67888899999999;69.758889;Амдерма (23022) кол-во измерений:28742
120;23029;УСТЬ-КАРА;16091;64.930556;69.251667;УСТЬ-КАРА (23029) кол-во измерений:16091
121;23032;Марресаля;32408;66.814444;69.714167;Марресаля (23032) кол-во измерений:32408
122;23058;Антипаюта;17750;76.858056;69.103889;Антипаюта (23058) кол-во измерений:17750
123;23078;Таймырский;19383;88.3;69.33;Таймырский (23078) кол-во измерений:19383
124;23104;Сенгейский Шар;19107;50.780003;68.353333;Сенгейский Шар (23104) кол-во измерений:19107
125;23114;мыс Константиновский;19280;55.496667;68.540556;мыс Константиновский (23114) кол-во измерений:19280
126;23174;Потапово;20192;86.25;68.6667;Потапово (23174) кол-во измерений:20192
127;23176;Исток;11857;89.25;68.42;Исток (23176) кол-во измерений:11857
128;23205;Нарьян-Мар;31744;53.0175;67.625;Нарьян-Мар (23205) кол-во измерений:31744
129;23207;Коткино;20325;51.141111;67.028333;Коткино (23207) кол-во измерений:20325
130;23215;Хорей Вер;19246;58.044444;67.420833;Хорей Вер (23215) кол-во измерений:19246
131;23219;Хоседа-Хард;27879;59.3833;67.0833;Хоседа-Хард (23219) кол-во измерений:27879
132;23220;Елецкая;20048;64.223333;67.045833;Елецкая (23220) кол-во измерений:20048
133;23226;Воркута;24654;63.97;67.48;Воркута (23226) кол-во измерений:24654
134;23242;Новый порт;28380;72.884167;67.687781;Новый порт (23242) кол-во измерений:28380
135;23256;Тазовский;27106;78.716667;67.475556;Тазовский (23256) кол-во измерений:27106
136;23274;Игарка;27539;86.57;67.47;Игарка (23274) кол-во измерений:27539
137;23305;Окунев Нос;20114;52.56416699999999;66.2575;Окунев Нос (23305) кол-во измерений:20114
138;23311;Мишвань;17900;55.73;66.95;Мишвань (23311) кол-во измерений:17900
139;23324;Петрунь;33313;60.754444;66.471111;Петрунь (23324) кол-во измерений:33313
140;23330;Салехард М-Ii;33684;66.674444;66.531944;Салехард М-Ii (23330) кол-во измерений:33684
141;23339;Полуй;19314;68.669444;66.035278;Полуй (23339) кол-во измерений:19314
142;23345;Ныда;24061;72.896114;66.624444;Ныда (23345) кол-во измерений:24061
143;23358;Новый Уренгой;12418;76.500556;66.074167;Новый Уренгой (23358) кол-во измерений:12418
144;23363;Советская Речка;19225;83.8;66.82;Советская Речка (23363) кол-во измерений:19225
145;23375;Курейка;21802;87.22;66.47;Курейка (23375) кол-во измерений:21802
146;23376;Светлогорск;7594;88.4;66.9;Светлогорск (23376) кол-во измерений:7594
147;23383;Агата;26070;93.4667;66.8833;Агата (23383) кол-во измерений:26070
148;23405;Усть-Цильма;36772;52.27;65.43;Усть-Цильма (23405) кол-во измерений:36772
149;23411;Мутный Материк;19930;55.14416700000001;65.954167;Мутный Материк (23411) кол-во измерений:19930
150;23412;Усть-Уса;28348;56.905556;65.984444;Усть-Уса (23412) кол-во измерений:28348
151;23416;Кожим рудник;20095;59.6;65.7;Кожим рудник (23416) кол-во измерений:20095
152;23418;Печора;24984;57.10000000000001;65.12;Печора (23418) кол-во измерений:24984
153;23426;Мужи;28450;64.705556;65.4075;Мужи (23426) кол-во измерений:28450
154;23431;Питляр;20084;65.9125;65.841389;Питляр (23431) кол-во измерений:20084
155;23443;Пангоды;13484;74.508056;65.848889;Пангоды (23443) кол-во измерений:13484
156;23445;Надым;19673;72.689444;65.480556;Надым (23445) кол-во измерений:19673
157;23453;Уренгой;20087;78.434444;65.962778;Уренгой (23453) кол-во измерений:20087
158;23463;Янов Стан;18406;84.3278;65.9772;Янов Стан (23463) кол-во измерений:18406
159;23465;Красноселькуп;18643;82.454722;65.706667;Красноселькуп (23465) кол-во измерений:18643
160;23471;Нижневартовск;17613;76.6;60.916667;Нижневартовск (23471) кол-во измерений:17613
161;23472;Туруханск;20078;87.93;65.78;Туруханск (23472) кол-во измерений:20078
162;23484;Большой Порог;19144;90.05;65.63;Большой Порог (23484) кол-во измерений:19144
163;23499;Тембенчи;22082;98.9;64.95;Тембенчи (23499) кол-во измерений:22082
164;23501;Левкинская;18080;51.1;64.8;Левкинская (23501) кол-во измерений:18080
165;23503;Ижма;28039;53.919167;65.000556;Ижма (23503) кол-во измерений:28039
166;23509;Кедва-Вом;18892;53.57;64.22;Кедва-Вом (23509) кол-во измерений:18892
167;23514;Ираель;19859;55.39999999999999;64.52;Ираель (23514) кол-во измерений:19859
168;23518;Усть-Щугор;32331;57.62;64.27;Усть-Щугор (23518) кол-во измерений:32331
169;23527;Саранпауль;28095;60.930556;64.252778;Саранпауль (23527) кол-во измерений:28095
170;23552;Тарко-Сале;27944;77.770836;64.911392;Тарко-Сале (23552) кол-во измерений:27944
171;23578;Верещагино;21759;87.47;64.23;Верещагино (23578) кол-во измерений:21759
172;23589;Тутончаны;19999;93.7833;64.2;Тутончаны (23589) кол-во измерений:19999
173;23606;Ухта;25052;53.81999999999999;63.55;Ухта (23606) кол-во измерений:25052
174;23625;Сосьва - р.Северная Сосьва;27669;62.090833;63.648611;Сосьва - р.Северная Сосьва (23625) кол-во измерений:27669
175;23629;Игрим;18332;64.45;63.20000000000001;Игрим (23629) кол-во измерений:18332
176;23631;Березово;28418;65.03;63.92;Березово (23631) кол-во измерений:28418
177;23632;Казым;27024;67.238333;63.701389;Казым (23632) кол-во измерений:27024
178;23656;Халясавэй;19127;78.323611;63.384167;Халясавэй (23656) кол-во измерений:19127
179;23662;Толька;24008;82.047503;63.994444;Толька (23662) кол-во измерений:24008
180;23678;Верхнеимбатск;30653;87.95;63.15;Верхнеимбатск (23678) кол-во измерений:30653
181;23699;Кербо;20128;101.12;62.7167;Кербо (23699) кол-во измерений:20128
182;23701;Весляна;27559;50.89999999999999;62.98;Весляна (23701) кол-во измерений:27559
183;23707;Усть-Вымь;19903;50.416389;62.227778;Усть-Вымь (23707) кол-во измерений:19903
184;23708;Лунь;20188;52.475833;62.22527800000001;Лунь (23708) кол-во измерений:20188
185;23709;Помоздино;20198;54.186389;62.19388899999999;Помоздино (23709) кол-во измерений:20198
186;23711;Троицко-Печорск;36076;56.193056;62.732499999999995;Троицко-Печорск (23711) кол-во измерений:36076
187;23724;Няксимволь;27616;60.86666699999999;62.433333;Няксимволь (23724) кол-во измерений:27616
188;23734;Октябрьское;27709;66.056111;62.464167;Октябрьское (23734) кол-во измерений:27709
189;23774;Келлог;19884;86.28;62.47999999999999;Келлог (23774) кол-во измерений:19884
190;23776;Бахта;21516;89.0;62.47;Бахта (23776) кол-во измерений:21516
191;23788;Кузьмовка;21461;92.12;62.32;Кузьмовка (23788) кол-во измерений:21461
192;23789;Полигус;18812;94.65;62.0;Полигус (23789) кол-во измерений:18812
193;23803;Усть-Кулом;27449;53.695;61.69944400000001;Усть-Кулом (23803) кол-во измерений:27449
194;23804;Сыктывкар;37274;50.784722;61.677222;Сыктывкар (23804) кол-во измерений:37274
195;23807;Пустошь;20197;50.263889;61.106389;Пустошь (23807) кол-во измерений:20197
196;23812;Якша;28743;56.87;61.83;Якша (23812) кол-во измерений:28743
197;23823;Вонъеган;13972;64.937778;61.956111;Вонъеган (23823) кол-во измерений:13972
198;23827;Бурмантово;27730;60.46999999999999;61.28000000000001;Бурмантово (23827) кол-во измерений:27730
199;23847;Сытомино;19778;71.301944;61.301944;Сытомино (23847) кол-во измерений:19778
200;23848;Нефтеюганск;12618;72.654444;61.101110999999996;Нефтеюганск (23848) кол-во измерений:12618
201;23859;Лобчинские;10190;78.6;61.1;Лобчинские (23859) кол-во измерений:10190
202;23862;Корлики;18648;82.423056;61.536111;Корлики (23862) кол-во измерений:18648
203;23867;Ларьяк;27142;80.254722;61.101944;Ларьяк (23867) кол-во измерений:27142
204;23884;Бор;27667;90.02;61.6;Бор (23884) кол-во измерений:27667
205;23891;Байкит;28130;96.3667;61.6667;Байкит (23891) кол-во измерений:28130
206;23904;Койгородок;20130;50.971111;60.444444000000004;Койгородок (23904) кол-во измерений:20130
207;23905;Усть-Черная;17381;52.63;60.470000000000006;Усть-Черная (23905) кол-во измерений:17381
208;23909;Гайны;28534;54.35;60.28;Гайны (23909) кол-во измерений:28534
209;23912;Ныроб;19408;56.72;60.72999999999999;Ныроб (23912) кол-во измерений:19408
210;23914;Чердынь;34564;56.52;60.4;Чердынь (23914) кол-во измерений:34564
211;23919;Североуральск;19080;59.98;60.23;Североуральск (23919) кол-во измерений:19080
212;23921;Ивдель;28952;60.45;60.68000000000001;Ивдель (23921) кол-во измерений:28952
213;23929;Шаим;21481;64.216389;60.321667;Шаим (23929) кол-во измерений:21481
214;23933;Ханты-Мансийск;29103;69.018889;61.027778;Ханты-Мансийск (23933) кол-во измерений:29103
215;23939;Алтай;17992;68.960278;60.328889;Алтай (23939) кол-во измерений:17992
216;23946;Угут;25027;74.043889;60.511389;Угут (23946) кол-во измерений:25027
217;23955;Александровское;28729;77.866667;60.433333;Александровское (23955) кол-во измерений:28729
218;23966;Ванжиль-Кынак;21486;84.05;60.21;Ванжиль-Кынак (23966) кол-во измерений:21486
219;23973;Ворогово;26673;89.63;61.03;Ворогово (23973) кол-во измерений:26673
220;23975;Сым;20130;88.37;60.35;Сым (23975) кол-во измерений:20130
221;23982;Вельмо;27495;93.42;61.02;Вельмо (23982) кол-во измерений:27495
222;23986;Северо-Енисейский;26350;93.03;60.38;Северо-Енисейский (23986) кол-во измерений:26350
223;23987;Ярцево;26579;90.23;60.28;Ярцево (23987) кол-во измерений:26579
224;23992;Усть-Камо;25761;97.5167;60.7167;Усть-Камо (23992) кол-во измерений:25761
225;24076;Депутатский;19605;139.901825;69.391622;Депутатский (24076) кол-во измерений:19605
226;24125;Оленек;27434;112.475556;68.510833;Оленек (24125) кол-во измерений:27434
227;24136;Сухана;27497;118.333333;68.616667;Сухана (24136) кол-во измерений:27497
228;24143;Джарджан;27408;124.0;68.73;Джарджан (24143) кол-во измерений:27408
229;24219;Ярольин;18892;108.533333;67.133336;Ярольин (24219) кол-во измерений:18892
230;24261;Батагай-Алыта;18719;130.383889;67.808611;Батагай-Алыта (24261) кол-во измерений:18719
231;24263;Батагай;19124;134.691644;67.643842;Батагай (24263) кол-во измерений:19124
232;24266;Верхоянск;33278;133.4;67.56666667;Верхоянск (24266) кол-во измерений:33278
233;24329;Шелагонцы;24595;114.28;66.25;Шелагонцы (24329) кол-во измерений:24595
234;24338;Эйк;25191;117.40000000000002;66.03;Эйк (24338) кол-во измерений:25191
235;24343;Жиганск;27494;123.40472200000002;66.772503;Жиганск (24343) кол-во измерений:27494
236;24361;Екюччю;20298;131.6;66.77;Екюччю (24361) кол-во измерений:20298
237;24371;Усть-Чаркы;17548;136.68;66.8;Усть-Чаркы (24371) кол-во измерений:17548
238;24382;Усть-Мома;27533;143.221667;66.450278;Усть-Мома (24382) кол-во измерений:27533
239;24449;Бестяхская звероферма;19210;124.12;65.3;Бестяхская звероферма (24449) кол-во измерений:19210
240;24477;Иэма;18653;135.8;65.3;Иэма (24477) кол-во измерений:18653
241;24507;Эвенкийский;29247;100.23;64.267;Эвенкийский (24507) кол-во измерений:29247
242;24538;Чумпурук;20990;116.91999999999999;64.23;Чумпурук (24538) кол-во измерений:20990
243;24557;Сого-Хая;25550;126.45;64.28;Сого-Хая (24557) кол-во измерений:25550
244;24585;Нера;26687;143.116667;64.547222;Нера (24585) кол-во измерений:26687
245;24588;Юрты;20238;141.88;64.05;Юрты (24588) кол-во измерений:20238
246;24606;Кислокан;22574;103.96999999999998;63.5833;Кислокан (24606) кол-во измерений:22574
247;24639;Нюрба;28404;118.35;63.3;Нюрба (24639) кол-во измерений:28404
248;24641;Вилюйск;31723;121.634998;63.753064;Вилюйск (24641) кол-во измерений:31723
249;24643;Хатырык-Хомо;19494;124.83;63.95;Хатырык-Хомо (24643) кол-во измерений:19494
250;24644;Верхневилюйск;19591;120.28;63.449999999999996;Верхневилюйск (24644) кол-во измерений:19591
251;24652;Сангары;28260;127.466667;63.966667;Сангары (24652) кол-во измерений:28260
252;24656;Батамай;26161;129.48;63.519999999999996;Батамай (24656) кол-во измерений:26161
253;24661;Сеген-Кюель;26839;130.3;64.0;Сеген-Кюель (24661) кол-во измерений:26839
254;24668;Верхоянский Перевоз;18693;132.02;63.32;Верхоянский Перевоз (24668) кол-во измерений:18693
255;24671;Томпо;17364;135.866667;63.95;Томпо (24671) кол-во измерений:17364
256;24679;Восточная;24048;139.629167;63.241111;Восточная (24679) кол-во измерений:24048
257;24684;Агаякан;18965;141.733333;63.333332999999996;Агаякан (24684) кол-во измерений:18965
258;24688;Оймякон;25518;143.15;63.25;Оймякон (24688) кол-во измерений:25518
259;24691;Делянкир;25021;145.601111;63.838611;Делянкир (24691) кол-во измерений:25021
260;24713;Наканно;24283;108.42999999999999;62.88;Наканно (24713) кол-во измерений:24283
261;24718;Хамакар;19209;108.22;62.17;Хамакар (24718) кол-во измерений:19209
262;24724;Чернышевский;18358;112.4833333;63.03333332999999;Чернышевский (24724) кол-во измерений:18358
263;24725;Туой-Хая;25290;111.23;62.53;Туой-Хая (24725) кол-во измерений:25290
264;24726;Мирный Аэро;19370;113.86999999999999;62.53000000000001;Мирный Аэро (24726) кол-во измерений:19370
265;24737;Крестях;19451;116.14999999999999;62.266667;Крестях (24737) кол-во измерений:19451
266;24738;Сунтар;28719;117.642778;62.18138900000001;Сунтар (24738) кол-во измерений:28719
267;24739;Чаингда;24621;119.84999999999998;62.28333;Чаингда (24739) кол-во измерений:24621
268;24753;Намцы;17799;129.65;62.730000000000004;Намцы (24753) кол-во измерений:17799
269;24758;Бердигестях;25432;127.07;62.27;Бердигестях (24758) кол-во измерений:25432
270;24763;Крест-Хальджай;17663;134.477336;62.806278;Крест-Хальджай (24763) кол-во измерений:17663
271;24768;Чурапча;28034;132.6;62.03;Чурапча (24768) кол-во измерений:28034
272;24771;Теплый Ключ;24458;136.854167;62.788056;Теплый Ключ (24771) кол-во измерений:24458
273;24790;Сусуман;28448;148.16999999999996;62.78;Сусуман (24790) кол-во измерений:28448
274;24796;Ягодное;20209;149.61;62.50999999999999;Ягодное (24796) кол-во измерений:20209
275;24799;Джека Лондона, озеро;19528;149.5;62.08;Джека Лондона, озеро (24799) кол-во измерений:19528
276;24802;Стрелка Чуня;26288;102.8;61.75;Стрелка Чуня (24802) кол-во измерений:26288
277;24807;Муторай;20272;100.47;61.3333;Муторай (24807) кол-во измерений:20272
278;24817;Ербогачён;26533;108.01999999999998;61.27;Ербогачён (24817) кол-во измерений:26533
279;24826;Дорожный;25015;114.62;61.620000000000005;Дорожный (24826) кол-во измерений:25015
280;24843;Тонгулах;19696;124.55;61.92;Тонгулах (24843) кол-во измерений:19696
281;24856;Покровск;19852;129.166389;61.495278;Покровск (24856) кол-во измерений:19852
282;24871;Охотский Перевоз;27270;135.5;61.86666;Охотский Перевоз (24871) кол-во измерений:27270
283;24908;Ванавара;28704;102.3;60.3333;Ванавара (24908) кол-во измерений:28704
284;24918;Преображенка;27131;108.08;60.04999999999999;Преображенка (24918) кол-во измерений:27131
285;24923;Ленск;23972;114.836389;60.725278;Ленск (24923) кол-во измерений:23972
286;24928;Комака;24292;111.733333;60.266667000000005;Комака (24928) кол-во измерений:24292
287;24933;Килеер;19502;119.30000000000001;60.95000000000001;Килеер (24933) кол-во измерений:19502
288;24944;Олекминск;31249;120.476111;60.4;Олекминск (24944) кол-во измерений:31249
289;24951;Исить;27383;125.31999999999998;60.82;Исить (24951) кол-во измерений:27383
290;24959;Якутск;35285;129.7166667;62.01666666999999;Якутск (24959) кол-во измерений:35285
291;24962;Амга;27401;131.98;60.9;Амга (24962) кол-во измерений:27401
292;24966;Усть-Мая;31447;134.450556;60.365;Усть-Мая (24966) кол-во измерений:31447
293;24967;Тегюлтя;24987;130.0;60.47;Тегюлтя (24967) кол-во измерений:24987
294;24975;Ыныкчан;17422;137.5;60.366659999999996;Ыныкчан (24975) кол-во измерений:17422
295;24982;Уега;19095;142.78;60.71999999999999;Уега (24982) кол-во измерений:19095
296;24988;Арка;27227;142.33;60.08;Арка (24988) кол-во измерений:27227
297;25042;о. Айон;25531;167.9688889;69.91861111;о. Айон (25042) кол-во измерений:25531
298;25044;Рау-Чуа;14352;166.5833333;69.5;Рау-Чуа (25044) кол-во измерений:14352
299;25051;Певек;25151;170.255;69.70416667;Певек (25051) кол-во измерений:25151
300;25062;мыс Биллингса;16452;175.7666667;69.88333333;мыс Биллингса (25062) кол-во измерений:16452
301;25121;Колымская;16749;158.71666;68.73333;Колымская (25121) кол-во измерений:16749
302;25123;Черский;21985;161.3375;68.745;Черский (25123) кол-во измерений:21985
303;25129;КОНСТАНТИНОВСКАЯ;13044;161.17;68.15;КОНСТАНТИНОВСКАЯ (25129) кол-во измерений:13044
304;25138;Островное;27622;164.16;68.11;Островное (25138) кол-во измерений:27622
305;25151;Чаун;22350;170.78;68.88;Чаун (25151) кол-во измерений:22350
306;25173;мыс Шмидта;27439;179.67;68.88;мыс Шмидта (25173) кол-во измерений:27439
307;25206;Среднеколымск;27770;153.71666700000003;67.45;Среднеколымск (25206) кол-во измерений:27770
308;25248;Илирней;23897;167.97;67.25;Илирней (25248) кол-во измерений:23897
309;25282;мыс Ванкарем;15648;184.1666667;67.83333333;мыс Ванкарем (25282) кол-во измерений:15648
310;25356;Эньмувеем;24622;173.33000000000004;66.38;Эньмувеем (25356) кол-во измерений:24622
311;25378;Эгвекинот;18171;180.8833333;66.35833333;Эгвекинот (25378) кол-во измерений:18171
312;25399;Уэлен;15277;190.1652778;66.16277778;Уэлен (25399) кол-во измерений:15277
313;25400;Зырянка;28564;150.887317;65.746827;Зырянка (25400) кол-во измерений:28564
314;25428;Омолон;23927;160.53;65.23;Омолон (25428) кол-во измерений:23927
315;25503;Коркодон;27217;153.97;64.75;Коркодон (25503) кол-во измерений:27217
316;25551;Марково;34886;170.42;64.68;Марково (25551) кол-во измерений:34886
317;25561;Танюрер;20159;174.42;64.87;Танюрер (25561) кол-во измерений:20159
318;25563;Анадырь;31266;177.560003;64.783336;Анадырь (25563) кол-во измерений:31266
319;25594;Бухта Провидения;26726;-173.243;64.3781;Бухта Провидения (25594) кол-во измерений:26726
320;25627;Лабазная;23547;158.5;63.3;Лабазная (25627) кол-во измерений:23547
321;25677;Беринговская;14676;179.27999999999997;63.02;Беринговская (25677) кол-во измерений:14676
322;25700;Эльген, совхоз;19929;150.67;62.8;Эльген, совхоз (25700) кол-во измерений:19929
323;25703;Сеймчан;27513;152.41;62.91;Сеймчан (25703) кол-во измерений:27513
324;25705;Среднекан;21751;152.32;62.449999999999996;Среднекан (25705) кол-во измерений:21751
325;25707;Бохапча;23573;150.68;62.1;Бохапча (25707) кол-во измерений:23573
326;25715;Омсукчан;25609;155.8;62.52;Омсукчан (25715) кол-во измерений:25609
327;25744;Каменское;22615;166.0833;62.4333;Каменское (25744) кол-во измерений:22615
328;25767;Хатырка;14912;175.2833;62.05;Хатырка (25767) кол-во измерений:14912
329;25904;Мадаун;20928;150.7;60.6;Мадаун (25904) кол-во измерений:20928
330;25907;Палатка;28270;150.93;60.1;Палатка (25907) кол-во измерений:28270
331;25912;Ола;21285;151.298693;59.571284;Ола (25912) кол-во измерений:21285
332;25913;Магадан;28855;150.7833333;59.55;Магадан (25913) кол-во измерений:28855
333;25914;Армань;20070;150.16;59.68000000000001;Армань (25914) кол-во измерений:20070
334;25916;Алевина,мыс;18351;151.35;58.83333333;Алевина,мыс (25916) кол-во измерений:18351
335;25922;Шелихова;14867;155.8833333;60.71666667;Шелихова (25922) кол-во измерений:14867
336;25932;Тайгонос;21141;160.4;60.683299999999996;Тайгонос (25932) кол-во измерений:21141
337;25956;Апука;23895;169.6666667;60.43333333;Апука (25956) кол-во измерений:23895
338;26059;Кингисепп;20408;28.599997;59.37;Кингисепп (26059) кол-во измерений:20408
339;26063;Санкт-Петербург;48071;30.3;59.97;Санкт-Петербург (26063) кол-во измерений:48071
340;26069;Белогорка;17594;30.133331;59.349997;Белогорка (26069) кол-во измерений:17594
341;26078;Любань;14705;31.266664;59.349997;Любань (26078) кол-во измерений:14705
342;26080;КИРИШИ;13452;32.03;59.45;КИРИШИ (26080) кол-во измерений:13452
343;26094;Тихвин;27198;33.55;59.65;Тихвин (26094) кол-во измерений:27198
344;26099;Ефимовская;19490;34.7;59.5;Ефимовская (26099) кол-во измерений:19490
345;26157;Гдов;14758;27.83;58.73;Гдов (26157) кол-во измерений:14758
346;26167;Николаевское;26798;29.8;58.57;Николаевское (26167) кол-во измерений:26798
347;26179;Новгород;25445;31.249997;58.516664000000006;Новгород (26179) кол-во измерений:25445
348;26258;Псков;27665;28.333333;57.8;Псков (26258) кол-во измерений:27665
349;26268;Дно;19930;29.95;57.82000000000001;Дно (26268) кол-во измерений:19930
350;26275;Старая Русса;27361;31.32;58.019999999999996;Старая Русса (26275) кол-во измерений:27361
351;26285;Крестцы;20180;32.533331;58.26666399999999;Крестцы (26285) кол-во измерений:20180
352;26289;Валдайский филиал;32394;33.23;57.98;Валдайский филиал (26289) кол-во измерений:32394
353;26291;Боровичи;25632;33.9;58.419999999999995;Боровичи (26291) кол-во измерений:25632
354;26298;Бологое;17882;34.044444;57.897778;Бологое (26298) кол-во измерений:17882
355;26359;Пушкинские Горы;17779;28.885278;57.021667;Пушкинские Горы (26359) кол-во измерений:17779
356;26378;Холм;23013;31.18;57.15;Холм (26378) кол-во измерений:23013
357;26389;Осташков;23028;33.1;57.11000000000001;Осташков (26389) кол-во измерений:23028
358;26393;Вышний Волочек;43433;34.55;57.53000000000001;Вышний Волочек (26393) кол-во измерений:43433
359;26456;Опочка;26750;28.72;56.72;Опочка (26456) кол-во измерений:26750
360;26462;Сущево;19508;29.899997;57.0;Сущево (26462) кол-во измерений:19508
361;26477;Великие Луки;37020;30.620000000000005;56.35;Великие Луки (26477) кол-во измерений:37020
362;26479;Торопец;17785;31.629999999999995;56.48;Торопец (26479) кол-во измерений:17785
363;26499;Старица;19715;34.92;56.48;Старица (26499) кол-во измерений:19715
364;26578;Велиж;24993;31.18;55.62;Велиж (26578) кол-во измерений:24993
365;26607;Пионерский;19326;20.21;54.949999999999996;Пионерский (26607) кол-во измерений:19326
366;26614;Советск;20034;21.56;55.05;Советск (26614) кол-во измерений:20034
367;26695;Вязьма;27043;34.4;55.17;Вязьма (26695) кол-во измерений:27043
368;26701;Балтийск;19895;;;Балтийск (26701) кол-во измерений:19895
369;26702;Калининград (п.Ульяновка);24785;20.55;54.72;Калининград (п.Ульяновка) (26702) кол-во измерений:24785
370;26706;Железнодорожный;19817;21.3;54.370000000000005;Железнодорожный (26706) кол-во измерений:19817
371;26711;Черняховск;19773;21.8;54.63;Черняховск (26711) кол-во измерений:19773
372;26781;Смоленск;25347;32.064444;54.75;Смоленск (26781) кол-во измерений:25347
373;26783;Ельня;20207;33.17;54.57;Ельня (26783) кол-во измерений:20207
374;26795;Спас-Деменск;26534;34.02;54.42;Спас-Деменск (26795) кол-во измерений:26534
375;26882;Рославль;27291;32.83;53.92999999999999;Рославль (26882) кол-во измерений:27291
376;26894;Жуковка;20174;33.75;53.53;Жуковка (26894) кол-во измерений:20174
377;26896;Жиздра;29705;34.73;53.75;Жиздра (26896) кол-во измерений:29705
378;26898;Брянск;27187;34.32;53.25;Брянск (26898) кол-во измерений:27187
379;26976;Красная Гора;27108;31.6;53.02;Красная Гора (26976) кол-во измерений:27108
380;26996;Навля;27104;34.5;52.830000000000005;Навля (26996) кол-во измерений:27104
381;26997;Трубчевск;20126;33.77;52.580000000000005;Трубчевск (26997) кол-во измерений:20126
382;27008;Бабаево;20446;35.93;59.4;Бабаево (27008) кол-во измерений:20446
383;27026;Коробово;20015;39.3;59.629999999999995;Коробово (27026) кол-во измерений:20015
384;27037;Вологда;27816;39.92999999999999;59.32000000000001;Вологда (27037) кол-во измерений:27816
385;27044;Биряково;19945;41.48;59.57999999999999;Биряково (27044) кол-во измерений:19945
386;27051;Тотьма;35264;42.75;59.88000000000001;Тотьма (27051) кол-во измерений:35264
387;27066;Никольск;28787;45.438611;59.536667;Никольск (27066) кол-во измерений:28787
388;27083;Опарино;20164;48.28;59.85000000000001;Опарино (27083) кол-во измерений:20164
389;27097;Мураши;19654;48.98;59.38;Мураши (27097) кол-во измерений:19654
390;27106;Устюжна;20075;36.463333;58.832222;Устюжна (27106) кол-во измерений:20075
391;27113;Череповец;19943;38.025556;59.282778;Череповец (27113) кол-во измерений:19943
392;27157;Чухлома;28381;42.67;58.75;Чухлома (27157) кол-во измерений:28381
393;27164;Кологрив;18815;44.32;58.82;Кологрив (27164) кол-во измерений:18815
394;27174;Пыщуг;19686;45.71;58.879999999999995;Пыщуг (27174) кол-во измерений:19686
395;27176;Вохма;19535;46.77;58.93;Вохма (27176) кол-во измерений:19535
396;27185;Даровской;19739;47.97;58.77;Даровской (27185) кол-во измерений:19739
397;27199;Киров;35149;49.63;58.6;Киров (27199) кол-во измерений:35149
398;27208;Максатиха;20225;35.9;57.8;Максатиха (27208) кол-во измерений:20225
399;27213;Брейтово;19656;37.86;58.300000000000004;Брейтово (27213) кол-во измерений:19656
400;27215;Красный Холм;20196;37.1;58.03000000000001;Красный Холм (27215) кол-во измерений:20196
401;27217;Бежецк;23648;36.7;57.76;Бежецк (27217) кол-во измерений:23648
402;27223;Пошехонье;27577;39.13;58.48;Пошехонье (27223) кол-во измерений:27577
403;27229;Тутаев;27545;39.53;57.9;Тутаев (27229) кол-во измерений:27545
404;27235;Данилов;19733;40.18;58.2;Данилов (27235) кол-во измерений:19733
405;27242;Буй;20250;41.53;58.48;Буй (27242) кол-во измерений:20250
406;27243;Галич;20245;42.37;58.38;Галич (27243) кол-во измерений:20245
407;27252;Николо-Полома;25503;43.38;58.35;Николо-Полома (27252) кол-во измерений:25503
408;27259;Макарьев;19625;43.785278;57.88611099999999;Макарьев (27259) кол-во измерений:19625
409;27271;Шарья;25747;45.529999999999994;58.37;Шарья (27271) кол-во измерений:25747
410;27277;Ветлуга;19868;45.77;57.85;Ветлуга (27277) кол-во измерений:19868
411;27281;Шабалино;19676;47.12;58.300000000000004;Шабалино (27281) кол-во измерений:19676
412;27283;Котельнич;19709;48.35;58.3;Котельнич (27283) кол-во измерений:19709
413;27295;Верхошижемье;19855;49.12;58.02;Верхошижемье (27295) кол-во измерений:19855
414;27296;Кумены;20081;49.92;58.1;Кумены (27296) кол-во измерений:20081
415;27321;Углич;19738;38.3;57.5;Углич (27321) кол-во измерений:19738
416;27329;Ростов;19192;39.41;57.20000000000001;Ростов (27329) кол-во измерений:19192
417;27333;Кострома;32868;40.78;57.73;Кострома (27333) кол-во измерений:32868
418;27344;Приволжск;19543;41.27;57.38;Приволжск (27344) кол-во измерений:19543
419;27346;Кинешма;19344;42.17;57.42;Кинешма (27346) кол-во измерений:19344
420;27347;Иваново;19506;40.97;56.949999999999996;Иваново (27347) кол-во измерений:19506
421;27355;Юрьевец;19442;43.08;57.32999999999999;Юрьевец (27355) кол-во измерений:19442
422;27369;Красные Баки;19714;45.17;57.13;Красные Баки (27369) кол-во измерений:19714
423;27373;Шахунья;19610;46.63;57.65999999999999;Шахунья (27373) кол-во измерений:19610
424;27385;Яранск;26771;47.92;57.37;Яранск (27385) кол-во измерений:26771
425;27393;Нолинск;19660;49.95;57.55;Нолинск (27393) кол-во измерений:19660
426;27401;Торжок;17847;35.01;57.03;Торжок (27401) кол-во измерений:17847
427;27402;Тверь;28105;35.928056;56.912778;Тверь (27402) кол-во измерений:28105
428;27417;Клин;23243;36.75;56.35;Клин (27417) кол-во измерений:23243
429;27419;Дмитров;20454;37.57;56.35000000000001;Дмитров (27419) кол-во измерений:20454
430;27425;Переславль-Залесский;19650;38.83;56.71;Переславль-Залесский (27425) кол-во измерений:19650
431;27428;Александров;19310;38.75;56.4;Александров (27428) кол-во измерений:19310
432;27437;Юрьев-Польский;19693;39.68;56.48;Юрьев-Польский (27437) кол-во измерений:19693
433;27441;Шуя;27811;41.4;56.85;Шуя (27441) кол-во измерений:27811
434;27453;Городец(Волжск.ГМО);18810;43.43;56.68;Городец(Волжск.ГМО) (27453) кол-во измерений:18810
435;27458;Дзержинск;16510;43.43;56.23;Дзержинск (27458) кол-во измерений:16510
436;27459;Нижний Новгород;38510;44.0;56.27;Нижний Новгород (27459) кол-во измерений:38510
437;27462;Семенов;19002;44.52;56.73;Семенов (27462) кол-во измерений:19002
438;27463;Воскресенское;19899;45.43;56.809999999999995;Воскресенское (27463) кол-во измерений:19899
439;27479;Козьмодемьянск;19799;46.58;56.33;Козьмодемьянск (27479) кол-во измерений:19799
440;27480;Санчурск;19685;47.32;56.980000000000004;Санчурск (27480) кол-во измерений:19685
441;27485;Йошкар-Ола;26809;47.77;56.63;Йошкар-Ола (27485) кол-во измерений:26809
442;27491;Новый Торъял;19533;48.73;57.0;Новый Торъял (27491) кол-во измерений:19533
443;27498;Морки;19578;49.02;56.43;Морки (27498) кол-во измерений:19578
444;27502;Волоколамск;20330;35.933056;56.012778;Волоколамск (27502) кол-во измерений:20330
445;27509;Можайск;28407;36.0;55.52;Можайск (27509) кол-во измерений:28407
446;27511;Ново-Иерусалим;19755;36.82;55.9;Ново-Иерусалим (27511) кол-во измерений:19755
447;27515;Немчиновка;11239;37.371944;55.706666999999996;Немчиновка (27515) кол-во измерений:11239
448;27518;Подмосковная;11365;37.181944;55.708611;Подмосковная (27518) кол-во измерений:11365
449;27523;Павловский Посад;20454;38.68;55.77;Павловский Посад (27523) кол-во измерений:20454
450;27526;ПЕТУШКИ;19612;39.46;55.92999999999999;ПЕТУШКИ (27526) кол-во измерений:19612
451;27532;Владимир;19891;40.317222;56.12433300000001;Владимир (27532) кол-во измерений:19891
452;27538;Черусти;20083;40.02;55.55;Черусти (27538) кол-во измерений:20083
453;27539;Гусь-Хрустальный;19706;40.65;55.6;Гусь-Хрустальный (27539) кол-во измерений:19706
454;27543;Вязники;19471;42.18;56.199999999999996;Вязники (27543) кол-во измерений:19471
455;27549;Муром;28126;42.0;55.6;Муром (27549) кол-во измерений:28126
456;27555;Павлово;19375;43.03;55.95;Павлово (27555) кол-во измерений:19375
457;27563;ЛЫСКОВО;19738;45.03;56.00999999999999;ЛЫСКОВО (27563) кол-во измерений:19738
458;27565;Дальнее Константиново;19838;44.08;55.8;Дальнее Константиново (27565) кол-во измерений:19838
459;27577;Сергач;19645;45.5;55.53000000000001;Сергач (27577) кол-во измерений:19645
460;27581;Чебоксары;19988;47.33;56.080000000000005;Чебоксары (27581) кол-во измерений:19988
461;27587;Канаш;19854;47.47;55.52;Канаш (27587) кол-во измерений:19854
462;27593;Арск;19775;49.864167;56.09138900000001;Арск (27593) кол-во измерений:19775
463;27594;Вязовые;19618;48.511667;55.814444;Вязовые (27594) кол-во измерений:19618
464;27595;Казань;41790;49.204444;55.74;Казань (27595) кол-во измерений:41790
465;27605;МОСКВА (БАЛЧУГ);16493;37.630003;55.745556;МОСКВА (БАЛЧУГ) (27605) кол-во измерений:16493
466;27606;Малоярославец;19715;36.48;55.02;Малоярославец (27606) кол-во измерений:19715
467;27611;Наро-Фоминск;20384;36.701111;55.387221999999994;Наро-Фоминск (27611) кол-во измерений:20384
468;27612;Москва (Вднх);24127;37.621944;55.831389;Москва (Вднх) (27612) кол-во измерений:24127
469;27618;Серпухов;29179;37.47;54.93;Серпухов (27618) кол-во измерений:29179
470;27625;Коломна;20392;38.73;55.129999999999995;Коломна (27625) кол-во измерений:20392
471;27627;Кашира;17621;38.15;54.83;Кашира (27627) кол-во измерений:17621
472;27636;Тума;19499;40.55;55.13;Тума (27636) кол-во измерений:19499
473;27643;Выкса;19691;42.12;55.33;Выкса (27643) кол-во измерений:19691
474;27648;Елатьма;35114;41.75;54.96;Елатьма (27648) кол-во измерений:35114
475;27653;Арзамас;27653;43.78;55.37;Арзамас (27653) кол-во измерений:27653
476;27665;Лукоянов;27967;44.5;55.03;Лукоянов (27665) кол-во измерений:27967
477;27666;Большое Болдино;18127;45.32;55.02;Большое Болдино (27666) кол-во измерений:18127
478;27675;Порецкое;41076;46.33;55.18000000000001;Порецкое (27675) кол-во измерений:41076
479;27679;Алатырь;19826;46.58;54.82;Алатырь (27679) кол-во измерений:19826
480;27683;Большие Кайбицы;20052;48.180833;55.407778;Большие Кайбицы (27683) кол-во измерений:20052
481;27685;Батырево;19925;47.6;55.07;Батырево (27685) кол-во измерений:19925
482;27697;Тетюши;20119;48.791111;54.948056;Тетюши (27697) кол-во измерений:20119
483;27703;Калуга;24476;36.371389;54.548611;Калуга (27703) кол-во измерений:24476
484;27704;Мосальск;19732;35.02;54.48;Мосальск (27704) кол-во измерений:19732
485;27707;Сухиничи;19757;35.344722;54.08222200000001;Сухиничи (27707) кол-во измерений:19757
486;27710;АЛЕКСИН;6627;37.08;54.5;АЛЕКСИН (27710) кол-во измерений:6627
487;27717;Суворов;18797;36.53;54.13;Суворов (27717) кол-во измерений:18797
488;27719;Тула;28237;37.62;54.23;Тула (27719) кол-во измерений:28237
489;27729;Михайлов;19701;39.03;54.25;Михайлов (27729) кол-во измерений:19701
490;27730;Рязань;32406;39.691111;54.586111;Рязань (27730) кол-во измерений:32406
491;27734;Старожилово;19543;39.97;54.27;Старожилово (27734) кол-во измерений:19543
492;27736;Шилово;19444;40.89;54.33;Шилово (27736) кол-во измерений:19444
493;27745;Сасово;18902;41.987611;54.356111;Сасово (27745) кол-во измерений:18902
494;27752;Темников;19390;43.23;54.629999999999995;Темников (27752) кол-во измерений:19390
495;27756;Краснослободск;19750;43.77;54.43;Краснослободск (27756) кол-во измерений:19750
496;27758;Торбеево;18881;43.25;54.08;Торбеево (27758) кол-во измерений:18881
497;27760;Саранск;23458;45.25;54.13;Саранск (27760) кол-во измерений:23458
498;27776;Сурское;18650;46.7;54.48;Сурское (27776) кол-во измерений:18650
499;27777;Большие Березники;19730;45.98;54.17;Большие Березники (27777) кол-во измерений:19730
500;27782;Дрожжаное;19408;47.574722;54.710556;Дрожжаное (27782) кол-во измерений:19408
501;27785;УЛЬЯНОВСК (БАРАТАЕВКА);20251;48.23;54.27;УЛЬЯНОВСК (БАРАТАЕВКА) (27785) кол-во измерений:20251
502;27799;Димитровград;24189;49.60000000000001;54.23;Димитровград (27799) кол-во измерений:24189
503;27809;Болхов;20181;36.03;53.43000000000001;Болхов (27809) кол-во измерений:20181
504;27814;Плавск;15261;37.23;53.65;Плавск (27814) кол-во измерений:15261
505;27817;Мценск;19805;36.53;53.38000000000001;Мценск (27817) кол-во измерений:19805
506;27821;Узловая;19732;38.13;54.0;Узловая (27821) кол-во измерений:19732
507;27823;Павелец;28702;39.23;53.8;Павелец (27823) кол-во измерений:28702
508;27824;Волово;26707;38.006389;53.556667;Волово (27824) кол-во измерений:26707
509;27835;Ряжск;19609;40.12;53.7;Ряжск (27835) кол-во измерений:19609
510;27836;Сараи;19391;40.985556;53.724444;Сараи (27836) кол-во измерений:19391
511;27848;Моршанск;20164;41.7833;53.4333;Моршанск (27848) кол-во измерений:20164
512;27857;Земетчино;34752;42.63;53.48;Земетчино (27857) кол-во измерений:34752
513;27858;Пачелма;27756;43.32;53.33;Пачелма (27858) кол-во измерений:27756
514;27861;Инсар;19062;44.38;53.87;Инсар (27861) кол-во измерений:19062
515;27872;Инза;26470;46.42000000000001;53.85;Инза (27872) кол-во измерений:26470
516;27877;Городище;19055;45.68;53.28;Городище (27877) кол-во измерений:19055
517;27890;Тольятти;19508;49.3;53.53;Тольятти (27890) кол-во измерений:19508
518;27891;Сенгилей;25071;48.79999999999999;53.96999999999999;Сенгилей (27891) кол-во измерений:25071
519;27894;Новодевичье;20050;48.83;53.6;Новодевичье (27894) кол-во измерений:20050
520;27899;Сосновый Солонец;19876;49.5;53.300000000000004;Сосновый Солонец (27899) кол-во измерений:19876
521;27901;Карачев;20132;35.0;53.13000000000001;Карачев (27901) кол-во измерений:20132
522;27906;Орел;26484;36.0;52.92999999999999;Орел (27906) кол-во измерений:26484
523;27915;Верховье;27729;37.27;52.82;Верховье (27915) кол-во измерений:27729
524;27921;Ефремов;19874;38.12;53.14999999999999;Ефремов (27921) кол-во измерений:19874
525;27923;Лев Толстой;28536;39.47;53.22;Лев Толстой (27923) кол-во измерений:28536
526;27928;Елец;20112;38.52;52.63;Елец (27928) кол-во измерений:20112
527;27930;Липецк;27341;39.52;52.70000000000001;Липецк (27930) кол-во измерений:27341
528;27935;Мичуринск;40317;40.4667;52.8833;Мичуринск (27935) кол-во измерений:40317
529;27947;Тамбов;28304;41.483333;52.800833;Тамбов (27947) кол-во измерений:28304
530;27955;Белинский;19808;43.4;52.97;Белинский (27955) кол-во измерений:19808
531;27957;Кирсанов;20085;42.7;52.65;Кирсанов (27957) кол-во измерений:20085
532;27961;Каменка Белинская;19759;44.03;53.17999999999999;Каменка Белинская (27961) кол-во измерений:19759
533;27962;Пенза;14801;45.02;53.12;Пенза (27962) кол-во измерений:14801
534;27966;Кондоль;19677;45.07;52.82;Кондоль (27966) кол-во измерений:19677
535;27981;Канадей;20147;47.52;53.150000000000006;Канадей (27981) кол-во измерений:20147
536;27983;Сызрань;19779;48.4;53.18;Сызрань (27983) кол-во измерений:19779
537;27995;Безенчук;39383;49.43;52.98;Безенчук (27995) кол-во измерений:39383
538;28007;Нагорск;25896;50.83;59.32;Нагорск (28007) кол-во измерений:25896
539;28009;Кирс;19844;52.25;59.35000000000001;Кирс (28009) кол-во измерений:19844
540;28013;Коса;27918;55.0;59.95;Коса (28013) кол-во измерений:27918
541;28016;Кочево;20008;54.47;59.6;Кочево (28016) кол-во измерений:20008
542;28028;Березники;19626;56.8333;59.550000000000004;Березники (28028) кол-во измерений:19626
543;28033;Карпинск;19461;60.0;59.75;Карпинск (28033) кол-во измерений:19461
544;28041;КРАСНОТУРЬИНСК;13514;60.22;59.77;КРАСНОТУРЬИНСК (28041) кол-во измерений:13514
545;28044;Серов;27375;60.53;59.6;Серов (28044) кол-во измерений:27375
546;28049;Гари;28170;62.33;59.43000000000001;Гари (28049) кол-во измерений:28170
547;28064;Леуши;28569;65.708333;59.641389;Леуши (28064) кол-во измерений:28569
548;28066;Кондинское;20020;67.42;59.65;Кондинское (28066) кол-во измерений:20020
549;28076;Демьянское;28381;69.344611;59.592167;Демьянское (28076) кол-во измерений:28381
550;28097;Таурово;17290;73.288889;59.585556;Таурово (28097) кол-во измерений:17290
551;28105;Белая Холуница;18965;50.85;58.83;Белая Холуница (28105) кол-во измерений:18965
552;28116;Кудымкар;28240;54.65;59.02;Кудымкар (28116) кол-во измерений:28240
553;28128;Чермоз;28406;56.20000000000001;58.77;Чермоз (28128) кол-во измерений:28406
554;28135;Качканар;19473;59.529999999999994;58.67999999999999;Качканар (28135) кол-во измерений:19473
555;28138;Бисер;29304;58.85;58.52;Бисер (28138) кол-во измерений:29304
556;28144;Верхотурье;28654;60.78;58.87;Верхотурье (28144) кол-во измерений:28654
557;28165;Куминская;15640;65.981669;58.8;Куминская (28165) кол-во измерений:15640
558;28172;Уват;19891;68.916669;59.16666899999999;Уват (28172) кол-во измерений:19891
559;28202;Фаленки;19674;51.57;58.35000000000001;Фаленки (28202) кол-во измерений:19674
560;28214;Глазов;27496;52.58;58.13;Глазов (28214) кол-во измерений:27496
561;28216;Верещагино;16317;54.68;58.08;Верещагино (28216) кол-во измерений:16317
562;28222;Добрянка;27668;56.45;58.45;Добрянка (28222) кол-во измерений:27668
563;28224;Пермь;36372;56.33;58.0;Пермь (28224) кол-во измерений:36372
564;28233;Кушва;27627;59.75;58.31999999999999;Кушва (28233) кол-во измерений:27627
565;28234;Лысьва;27696;57.78;58.12;Лысьва (28234) кол-во измерений:27696
566;28238;Кын;22940;58.65;57.83;Кын (28238) кол-во измерений:22940
567;28240;Нижний Тагил;28410;60.07;57.88;Нижний Тагил (28240) кол-во измерений:28410
568;28248;Алапаевск;28377;61.7;57.87;Алапаевск (28248) кол-во измерений:28377
569;28255;Туринск;28392;63.68;58.05;Туринск (28255) кол-во измерений:28392
570;28264;Тавда, Белый Яр;27898;65.27;58.07;Тавда, Белый Яр (28264) кол-во измерений:27898
571;28275;Тобольск;36994;68.25;58.150000000000006;Тобольск (28275) кол-во измерений:36994
572;28278;Вагайское;19755;69.0275;57.94833299999999;Вагайское (28278) кол-во измерений:19755
573;28302;Уни;19694;51.5;57.75;Уни (28302) кол-во измерений:19694
574;28307;Уржум;19737;50.0;57.12;Уржум (28307) кол-во измерений:19737
575;28309;Селты;19336;52.15;57.300000000000004;Селты (28309) кол-во измерений:19336
576;28312;Дебёсы;19461;53.82;57.629999999999995;Дебёсы (28312) кол-во измерений:19461
577;28313;Большая Соснова;20277;54.599999999999994;57.68000000000001;Большая Соснова (28313) кол-во измерений:20277
578;28315;Игра;19858;53.1;57.55;Игра (28315) кол-во измерений:19858
579;28318;Воткинск;19662;53.92;57.04999999999999;Воткинск (28318) кол-во измерений:19662
580;28319;Ножовка;28648;54.75;57.08;Ножовка (28319) кол-во измерений:28648
581;28321;Оханск;19983;55.38;57.72;Оханск (28321) кол-во измерений:19983
582;28324;Оса;22146;55.43;57.27000000000001;Оса (28324) кол-во измерений:22146
583;28326;Кунгур;28401;56.93;57.42000000000001;Кунгур (28326) кол-во измерений:28401
584;28333;Висим;28573;59.53;57.67;Висим (28333) кол-во измерений:28573
585;28334;Шамары;28266;58.22;57.35;Шамары (28334) кол-во измерений:28266
586;28344;Невьянск;27071;60.25;57.5;Невьянск (28344) кол-во измерений:27071
587;28345;Липовское;20297;61.17;57.45000000000001;Липовское (28345) кол-во измерений:20297
588;28346;Артемовский;27920;61.92;57.37;Артемовский (28346) кол-во измерений:27920
589;28353;Туринская Слобода;20110;64.4;57.62;Туринская Слобода (28353) кол-во измерений:20110
590;28359;Тугулым;27697;64.67;57.07;Тугулым (28359) кол-во измерений:27697
591;28366;Ярково;28057;67.073889;57.407503;Ярково (28366) кол-во измерений:28057
592;28367;Тюмень;28456;65.420836;57.108892000000004;Тюмень (28367) кол-во измерений:28456
593;28382;Усть-Ишим;28307;71.162778;57.706667;Усть-Ишим (28382) кол-во измерений:28307
594;28383;Тевриз;28451;72.370281;57.514447;Тевриз (28383) кол-во измерений:28451
595;28402;Кильмезь;19906;51.07;56.9;Кильмезь (28402) кол-во измерений:19906
596;28409;Можга;19702;52.2;56.43000000000001;Можга (28409) кол-во измерений:19702
597;28411;Ижевск;20819;53.45;56.83;Ижевск (28411) кол-во измерений:20819
598;28413;Чайковский;20174;54.08;56.75;Чайковский (28413) кол-во измерений:20174
599;28418;Сарапул;33223;53.73;56.47;Сарапул (28418) кол-во измерений:33223
600;28419;Янаул;28473;54.9;56.27000000000001;Янаул (28419) кол-во измерений:28473
601;28428;Чернушка;28246;56.13;56.5;Чернушка (28428) кол-во измерений:28246
602;28429;Октябрьский;20053;57.22;56.53;Октябрьский (28429) кол-во измерений:20053
603;28430;Ревда;19263;59.98;56.879999999999995;Ревда (28430) кол-во измерений:19263
604;28434;Красноуфимск;28855;57.78000000000001;56.65;Красноуфимск (28434) кол-во измерений:28855
605;28440;Екатеринбург;45110;60.63000000000001;56.83;Екатеринбург (28440) кол-во измерений:45110
606;28445;Верхнее Дуброво;19923;61.07000000000001;56.730000000000004;Верхнее Дуброво (28445) кол-во измерений:19923
607;28448;Сысерть;20131;60.81999999999999;56.5;Сысерть (28448) кол-во измерений:20131
608;28449;Каменск-Уральский;28149;61.87;56.43;Каменск-Уральский (28449) кол-во измерений:28149
609;28451;Камышлов;27959;62.72;56.85000000000001;Камышлов (28451) кол-во измерений:27959
610;28455;Бутка;27684;63.77;56.72;Бутка (28455) кол-во измерений:27684
611;28456;Шатрово;27697;64.65;56.52;Шатрово (28456) кол-во измерений:27697
612;28457;Далматово;20149;62.93;56.269999999999996;Далматово (28457) кол-во измерений:20149
613;28465;Ялуторовск;19895;66.3412;56.677606;Ялуторовск (28465) кол-во измерений:19895
614;28478;Голышманово;19900;68.368056;56.403614;Голышманово (28478) кол-во измерений:19900
615;28481;Викулово;28041;70.603889;56.818333;Викулово (28481) кол-во измерений:28041
616;28491;Большие Уки;27890;72.666667;56.933333;Большие Уки (28491) кол-во измерений:27890
617;28493;Тара;28822;74.383333;56.9;Тара (28493) кол-во измерений:28822
618;28502;Вятские Поляны;19955;51.03;56.23;Вятские Поляны (28502) кол-во измерений:19955
619;28506;Елабуга;17935;52.044167;55.758889;Елабуга (28506) кол-во измерений:17935
620;28517;Мензелинск;28083;53.069444000000004;55.718611;Мензелинск (28517) кол-во измерений:28083
621;28522;Аскино;16146;56.57;56.11;Аскино (28522) кол-во измерений:16146
622;28526;Караидель;19127;56.90999999999999;55.83;Караидель (28526) кол-во измерений:19127
623;28533;Нязепетровск;28669;59.58;56.05;Нязепетровск (28533) кол-во измерений:28669
624;28535;Емаши;20130;58.61;55.92999999999999;Емаши (28535) кол-во измерений:20130
625;28537;Дуван;28482;57.9;55.7;Дуван (28537) кол-во измерений:28482
626;28541;Верхний Уфалей;20302;60.29999999999999;56.08;Верхний Уфалей (28541) кол-во измерений:20302
627;28548;Аргаяш;27654;60.89999999999999;55.55;Аргаяш (28548) кол-во измерений:27654
628;28549;Бродокалмак;27895;62.06999999999999;55.58;Бродокалмак (28549) кол-во измерений:27895
629;28552;Шадринск;28632;63.65;56.07;Шадринск (28552) кол-во измерений:28632
630;28561;Памятное;20349;65.7;56.019999999999996;Памятное (28561) кол-во измерений:20349
631;28573;Ишим;28443;69.409861;56.098972;Ишим (28573) кол-во измерений:28443
632;28581;Абатское;16483;70.434597;56.287378;Абатское (28581) кол-во измерений:16483
633;28586;Тюкалинск;27940;72.216667;55.868611;Тюкалинск (28586) кол-во измерений:27940
634;28587;Сладково;20086;70.352225;55.525278;Сладково (28587) кол-во измерений:20086
635;28588;Называевск;20028;71.366669;55.566669000000005;Называевск (28588) кол-во измерений:20028
636;28593;Большеречье;20083;74.61;56.094444;Большеречье (28593) кол-во измерений:20083
637;28598;Саргатское;19578;73.492225;55.623333;Саргатское (28598) кол-во измерений:19578
638;28601;Чистополь;20029;50.6167;55.31669999999999;Чистополь (28601) кол-во измерений:20029
639;28606;Акташ;18329;52.109167;55.050833;Акташ (28606) кол-во измерений:18329
640;28611;Муслюмово;20109;53.2;55.3167;Муслюмово (28611) кол-во измерений:20109
641;28615;Бакалы;20072;53.79999999999999;55.18;Бакалы (28615) кол-во измерений:20072
642;28617;Азнакаево;15873;53.069444;54.868611;Азнакаево (28617) кол-во измерений:15873
643;28621;Бирск;28110;55.55;55.4;Бирск (28621) кол-во измерений:28110
644;28622;Павловка;19817;56.599999999999994;55.400000000000006;Павловка (28622) кол-во измерений:19817
645;28624;Кушнаренково;19812;55.349999999999994;55.13;Кушнаренково (28624) кол-во измерений:19812
646;28629;Улу-Теляк;28471;56.95000000000001;54.9;Улу-Теляк (28629) кол-во измерений:28471
647;28630;Златоуст;27956;59.67;55.17;Златоуст (28630) кол-во измерений:27956
648;28645;Челябинск-Город;39716;61.3;55.15;Челябинск-Город (28645) кол-во измерений:39716
649;28647;Миасс;20285;60.080000000000005;55.0;Миасс (28647) кол-во измерений:20285
650;28655;Шумиха;28297;63.32;55.23;Шумиха (28655) кол-во измерений:28297
651;28659;Куртамыш;20168;64.43;54.92;Куртамыш (28659) кол-во измерений:20168
652;28661;Курган;31168;65.4;55.45;Курган (28661) кол-во измерений:31168
653;28662;Лебяжье;20124;66.5;55.28;Лебяжье (28662) кол-во измерений:20124
654;28666;Макушино;28252;67.3;55.25;Макушино (28666) кол-во измерений:28252
655;28668;Половинное;25702;66.0;54.77;Половинное (28668) кол-во измерений:25702
656;28674;Петухово;20259;67.88;55.07000000000001;Петухово (28674) кол-во измерений:20259
657;28688;Исилькуль;28477;71.270278;54.93722199999999;Исилькуль (28688) кол-во измерений:28477
658;28696;Калачинск;28330;74.606114;55.019444;Калачинск (28696) кол-во измерений:28330
659;28698;Омск;33205;73.383333;55.016667;Омск (28698) кол-во измерений:33205
660;28704;Чулпаново;28066;50.412778;54.49249999999999;Чулпаново (28704) кол-во измерений:28066
661;28705;Челно-Вершины;20099;51.1;54.42;Челно-Вершины (28705) кол-во измерений:20099
662;28709;Клявлино;19813;52.03;54.27;Клявлино (28709) кол-во измерений:19813
663;28710;Раевский;27889;54.927778;54.063611;Раевский (28710) кол-во измерений:27889
664;28711;Бугульма;34110;52.800833;54.631944;Бугульма (28711) кол-во измерений:34110
665;28712;Туймазы;19769;53.713889;54.591666999999994;Туймазы (28712) кол-во измерений:19769
666;28713;Буздяк;18293;54.537222;54.575278;Буздяк (28713) кол-во измерений:18293
667;28719;Аксаково;28698;54.15;54.02000000000001;Аксаково (28719) кол-во измерений:28698
668;28721;Чишмы;28752;55.429722;54.589444;Чишмы (28721) кол-во измерений:28752
669;28722;Уфа, Дема;35682;55.813889;54.711389;Уфа, Дема (28722) кол-во измерений:35682
670;28726;Архангельское;24493;56.78;54.4;Архангельское (28726) кол-во измерений:24493
671;28736;Учалы;19971;59.43;54.36;Учалы (28736) кол-во измерений:19971
672;28741;Мирный;28597;60.3;54.55;Мирный (28741) кол-во измерений:28597
673;28745;Южноуральск;27632;61.35;54.43;Южноуральск (28745) кол-во измерений:27632
674;28748;Троицк;28564;61.62;54.08;Троицк (28748) кол-во измерений:28564
675;28754;Октябрьское;19661;62.699999999999996;54.42000000000001;Октябрьское (28754) кол-во измерений:19661
676;28756;Звериноголовское;28570;64.87;54.47;Звериноголовское (28756) кол-во измерений:28570
677;28786;Полтавка;19815;71.766114;54.356114;Полтавка (28786) кол-во измерений:19815
678;28791;Шербакуль;19797;72.423056;54.631944;Шербакуль (28791) кол-во измерений:19797
679;28797;Одесское;27468;72.951944;54.209169;Одесское (28797) кол-во измерений:27468
680;28798;Павлоградка;16560;73.577222;54.199725;Павлоградка (28798) кол-во измерений:16560
681;28799;Черлак;27607;74.815278;54.156667000000006;Черлак (28799) кол-во измерений:27607
682;28802;Серноводск;28009;51.27;53.92;Серноводск (28802) кол-во измерений:28009
683;28806;Бугуруслан;19328;52.45;53.62;Бугуруслан (28806) кол-во измерений:19328
684;28815;Абдулино;15476;53.65;53.65;Абдулино (28815) кол-во измерений:15476
685;28817;Троицкое, а;19950;52.82;53.33;Троицкое, а (28817) кол-во измерений:19950
686;28823;Тукан;20194;57.410000000000004;53.86000000000001;Тукан (28823) кол-во измерений:20194
687;28825;Стерлитамак;28737;55.933611;53.603333;Стерлитамак (28825) кол-во измерений:28737
688;28831;Белорецк;28602;58.35;53.96;Белорецк (28831) кол-во измерений:28602
689;28833;Верхнеуральск;27283;59.2;53.88;Верхнеуральск (28833) кол-во измерений:27283
690;28838;Магнитогорск;27751;59.07999999999999;53.35;Магнитогорск (28838) кол-во измерений:27751
691;28895;Русская Поляна;19872;73.883333;53.783333;Русская Поляна (28895) кол-во измерений:19872
692;28900;Самара;28836;50.22;53.25;Самара (28900) кол-во измерений:28836
693;28901;Аглос;17313;50.1;52.97;Аглос (28901) кол-во измерений:17313
694;28903;Боровое лесничество;19832;52.05;53.0;Боровое лесничество (28903) кол-во измерений:19832
695;28908;Авангард Зерн.с/з;26830;51.28000000000001;52.62;Авангард Зерн.с/з (28908) кол-во измерений:26830
696;28909;Бузулук;20623;52.220000000000006;52.82000000000001;Бузулук (28909) кол-во измерений:20623
697;28916;Шарлык;27114;54.75;52.93;Шарлык (28916) кол-во измерений:27114
698;28925;Мелеуз;28529;55.919444;52.932778000000006;Мелеуз (28925) кол-во измерений:28529
699;28926;Кананикольское;27561;57.48361100000001;52.776667;Кананикольское (28926) кол-во измерений:27561
700;28927;Кумертау;19835;55.78;52.76;Кумертау (28927) кол-во измерений:19835
701;28928;Мраково;19872;56.653611;52.731944;Мраково (28928) кол-во измерений:19872
702;28938;Баймак;19245;58.3;52.6;Баймак (28938) кол-во измерений:19245
703;28939;Кизильское;20062;58.88;52.71999999999999;Кизильское (28939) кол-во измерений:20062
704;28941;Карталы;28631;60.67;53.04999999999999;Карталы (28941) кол-во измерений:28631
705;29016;Прохоркино;19640;79.28;59.31000000000001;Прохоркино (29016) кол-во измерений:19640
706;29023;Напас;28034;81.57;59.51;Напас (29023) кол-во измерений:28034
707;29037;Березовка;21748;82.6;59.3;Березовка (29037) кол-во измерений:21748
708;29059;Александровский Шлюз;20394;89.3;59.42;Александровский Шлюз (29059) кол-во измерений:20394
709;29068;Назимово;19696;91.02;59.5;Назимово (29068) кол-во измерений:19696
710;29111;Средний Васюган;33601;78.14;59.13;Средний Васюган (29111) кол-во измерений:33601
711;29122;Каргасок;28593;80.51;59.04;Каргасок (29122) кол-во измерений:28593
712;29128;Парабель;28226;81.29;58.42000000000001;Парабель (29128) кол-во измерений:28226
713;29149;Степановка;25558;86.44;58.38;Степановка (29149) кол-во измерений:25558
714;29154;Усть-Озерное;28627;87.918444;58.747528;Усть-Озерное (29154) кол-во измерений:28627
715;29203;Новый Васюган;19878;76.31;58.35;Новый Васюган (29203) кол-во измерений:19878
716;29209;Майск;19152;77.13;57.49;Майск (29209) кол-во измерений:19152
717;29224;Старица;28348;80.35;58.09;Старица (29224) кол-во измерений:28348
718;29231;Колпашевская зональная;28852;82.57;58.19;Колпашевская зональная (29231) кол-во измерений:28852
719;29237;Подгорное;14569;82.4;57.47;Подгорное (29237) кол-во измерений:14569
720;29247;Батурино;21451;85.09;57.47;Батурино (29247) кол-во измерений:21451
721;29253;Лосиноборское;28416;89.36999999999999;58.42999999999999;Лосиноборское (29253) кол-во измерений:28416
722;29263;Енисейск;32619;92.15;58.45;Енисейск (29263) кол-во измерений:32619
723;29274;Стрелка;20346;93.0;58.08;Стрелка (29274) кол-во измерений:20346
724;29276;Мотыгино;27911;94.7;58.18;Мотыгино (29276) кол-во измерений:27911
725;29282;Богучаны;30412;97.45;58.38;Богучаны (29282) кол-во измерений:30412
726;29313;Пудино;30900;79.26;57.34;Пудино (29313) кол-во измерений:30900
727;29328;Бакчар;28518;82.04;57.0;Бакчар (29328) кол-во измерений:28518
728;29332;Молчаново;15190;83.46;57.35;Молчаново (29332) кол-во измерений:15190
729;29348;Первомайское;28691;86.13000000000001;57.04;Первомайское (29348) кол-во измерений:28691
730;29355;Тегульдет;19392;88.09;57.18;Тегульдет (29355) кол-во измерений:19392
731;29363;Пировское;19802;92.2667;57.633300000000006;Пировское (29363) кол-во измерений:19802
732;29367;Новобирилюссы;26989;90.52;57.07;Новобирилюссы (29367) кол-во измерений:26989
733;29374;Казачинское;28240;93.2833;57.6833;Казачинское (29374) кол-во измерений:28240
734;29379;Тасеево;9862;94.55;57.2;Тасеево (29379) кол-во измерений:9862
735;29393;Червянка;20150;99.53;57.65;Червянка (29393) кол-во измерений:20150
736;29401;Седельниково;20402;75.307222;56.946667;Седельниково (29401) кол-во измерений:20402
737;29405;Кыштовка;27092;76.34;56.35999999999999;Кыштовка (29405) кол-во измерений:27092
738;29418;Северное;27542;78.21999999999998;56.2;Северное (29418) кол-во измерений:27542
739;29430;Томск;32605;84.55;56.3;Томск (29430) кол-во измерений:32605
740;29456;Тюхтет;27874;89.3167;56.53329999999999;Тюхтет (29456) кол-во измерений:27874
741;29467;Ачинск;32071;90.52;56.28;Ачинск (29467) кол-во измерений:32071
742;29471;Большая Мурта;21882;93.1333;56.9;Большая Мурта (29471) кол-во измерений:21882
743;29477;Сухобузимское;28111;93.2833;56.5;Сухобузимское (29477) кол-во измерений:28111
744;29481;Дзержинское;21838;95.2167;56.85;Дзержинское (29481) кол-во измерений:21838
745;29485;Абан;19775;96.0333;56.7;Абан (29485) кол-во измерений:19775
746;29492;Выдрино-на-Чуне;18372;99.03;56.83;Выдрино-на-Чуне (29492) кол-во измерений:18372
747;29498;Шиткино;26864;98.36;56.35000000000001;Шиткино (29498) кол-во измерений:26864
748;29500;Усть-Тарка;14971;75.41;55.34;Усть-Тарка (29500) кол-во измерений:14971
749;29508;Венгерово;14606;76.43;55.4;Венгерово (29508) кол-во измерений:14606
750;29524;Крещенка;21531;80.03;55.510000000000005;Крещенка (29524) кол-во измерений:21531
751;29532;Кожевниково;27803;83.58;56.15;Кожевниково (29532) кол-во измерений:27803
752;29539;Болотное;28818;84.24;55.4;Болотное (29539) кол-во измерений:28818
753;29540;Яя;20153;86.28;56.11999999999999;Яя (29540) кол-во измерений:20153
754;29541;Тайга;28238;85.37;56.04;Тайга (29541) кол-во измерений:28238
755;29548;Барзас;21483;86.16;55.42;Барзас (29548) кол-во измерений:21483
756;29551;Мариинск;28529;87.41000000000001;56.11;Мариинск (29551) кол-во измерений:28529
757;29552;Тяжин;18678;88.31;56.07;Тяжин (29552) кол-во измерений:18678
758;29553;Боготол;28712;89.5833;56.2333;Боготол (29553) кол-во измерений:28712
759;29557;Тисуль;28298;88.18;55.45;Тисуль (29557) кол-во измерений:28298
760;29558;Катэк;20946;89.2;55.53300000000001;Катэк (29558) кол-во измерений:20946
761;29561;Назарово;20387;90.3167;56.0333;Назарово (29561) кол-во измерений:20387
762;29562;Кемчуг;26991;91.67;56.1;Кемчуг (29562) кол-во измерений:26991
763;29563;Кача;28731;92.2;56.12;Кача (29563) кол-во измерений:28731
764;29566;Шумиха;17315;92.3;55.95;Шумиха (29566) кол-во измерений:17315
765;29570;Красноярск Опыт.поле;33368;92.75;56.03;Красноярск Опыт.поле (29570) кол-во измерений:33368
766;29571;Минино;11657;92.7333;56.0667;Минино (29571) кол-во измерений:11657
767;29576;Уяр;27954;94.33329999999998;55.8;Уяр (29576) кол-во измерений:27954
768;29578;Шалинское;28803;93.75;55.7167;Шалинское (29578) кол-во измерений:28803
769;29580;Солянка;27943;95.2667;56.1667;Солянка (29580) кол-во измерений:27943
770;29581;Канск;28359;95.63329999999999;56.2;Канск (29581) кол-во измерений:28359
771;29587;Ирбейское;27182;95.4667;55.6333;Ирбейское (29587) кол-во измерений:27182
772;29590;Новочунка;20131;99.32;56.13;Новочунка (29590) кол-во измерений:20131
773;29594;Тайшет;29736;98.0;55.95;Тайшет (29594) кол-во измерений:29736
774;29602;Чаны;20183;76.45;55.19;Чаны (29602) кол-во измерений:20183
775;29605;Татарск;33545;76.01;55.13;Татарск (29605) кол-во измерений:33545
776;29612;Барабинск;31481;78.19;55.21;Барабинск (29612) кол-во измерений:31481
777;29613;Убинское;26910;79.38;55.18;Убинское (29613) кол-во измерений:26910
778;29614;Квашнино;19210;77.5;55.00999999999999;Квашнино (29614) кол-во измерений:19210
779;29624;Каргат;21798;80.16;55.11;Каргат (29624) кол-во измерений:21798
780;29625;Чулым;28716;80.58;55.059999999999995;Чулым (29625) кол-во измерений:28716
781;29626;Коченево;21765;82.14;55.02;Коченево (29626) кол-во измерений:21765
782;29631;Колывань;28606;82.44;55.19;Колывань (29631) кол-во измерений:28606
783;29632;Мошково;28512;83.36;55.19;Мошково (29632) кол-во измерений:28512
784;29635;Обская ГМО (Новосиб);15214;82.95;54.8;Обская ГМО (Новосиб) (29635) кол-во измерений:15214
785;29636;Тогучин;21838;84.22;55.129999999999995;Тогучин (29636) кол-во измерений:21838
786;29638;Огурцово;20555;82.57;54.54;Огурцово (29638) кол-во измерений:20555
787;29641;Топки;21901;85.36;55.16;Топки (29641) кол-во измерений:21901
788;29644;Промышленная;19138;85.37;54.54;Промышленная (29644) кол-во измерений:19138
789;29645;Новостройка (Кемерово);21717;86.13;55.150000000000006;Новостройка (Кемерово) (29645) кол-во измерений:21717
790;29649;Крапивино;27629;86.49;55.0;Крапивино (29649) кол-во измерений:27629
791;29653;Ужур ст.ж.д.;28307;89.8167;55.3;Ужур ст.ж.д. (29653) кол-во измерений:28307
792;29654;Центральный Рудник;18983;87.39;55.12;Центральный Рудник (29654) кол-во измерений:18983
793;29662;Балахта;27929;91.66670000000002;55.3833;Балахта (29662) кол-во измерений:27929
794;29664;Светлолобово;20784;90.8333;55.10000000000001;Светлолобово (29664) кол-во измерений:20784
795;29675;Колба;26314;93.3667;55.08330000000001;Колба (29675) кол-во измерений:26314
796;29676;Агинское;21852;94.8833;55.25;Агинское (29676) кол-во измерений:21852
797;29698;Нижнеудинск;27302;99.03;54.88;Нижнеудинск (29698) кол-во измерений:27302
798;29701;Любимовка;20903;75.120833;54.670003;Любимовка (29701) кол-во измерений:20903
799;29702;Чистоозерное;27776;76.34000000000002;54.42000000000001;Чистоозерное (29702) кол-во измерений:27776
800;29706;Купино;27525;77.19;54.23;Купино (29706) кол-во измерений:27525
801;29708;Баган;18227;77.42;54.06;Баган (29708) кол-во измерений:18227
802;29712;Здвинск;26439;78.4;54.43;Здвинск (29712) кол-во измерений:26439
803;29716;Довольное;21176;79.41;54.31;Довольное (29716) кол-во измерений:21176
804;29722;Ужаниха;19845;81.02;54.4;Ужаниха (29722) кол-во измерений:19845
805;29723;О.Дальний;12390;82.3;54.5;О.Дальний (29723) кол-во измерений:12390
806;29724;Кочки;27672;80.28;54.2;Кочки (29724) кол-во измерений:27672
807;29726;Ордынское;28187;81.9;54.4;Ордынское (29726) кол-во измерений:28187
808;29730;Искитим;13879;83.16;54.39;Искитим (29730) кол-во измерений:13879
809;29735;Посевная;28006;83.19;54.18;Посевная (29735) кол-во измерений:28006
810;29736;Маслянино;27549;84.12999999999998;54.2;Маслянино (29736) кол-во измерений:27549
811;29741;Красное;21821;85.24;54.36;Красное (29741) кол-во измерений:21821
812;29745;Белово;30076;86.21999999999998;54.27;Белово (29745) кол-во измерений:30076
813;29749;Киселевск им. Л. Р. и Н. А. Петровых;28327;86.38999999999999;54.02;Киселевск им. Л. Р. и Н. А. Петровых (29749) кол-во измерений:28327
814;29752;Ненастная;29067;88.82;54.75;Ненастная (29752) кол-во измерений:29067
815;29756;Шира ст.ж.д.;28371;89.9333;54.5;Шира ст.ж.д. (29756) кол-во измерений:28371
816;29759;Коммунар;20056;89.28;54.33;Коммунар (29759) кол-во измерений:20056
817;29761;Первомайское;17014;90.8667;54.5833;Первомайское (29761) кол-во измерений:17014
818;29766;Идринское;21859;92.1333;54.3667;Идринское (29766) кол-во измерений:21859
819;29771;Щетинкино;15553;93.43;54.53;Щетинкино (29771) кол-во измерений:15553
820;29772;Артемовск;20416;93.38;54.52;Артемовск (29772) кол-во измерений:20416
821;29789;Верхняя Гутара;27961;96.97;54.22;Верхняя Гутара (29789) кол-во измерений:27961
822;29794;Нерой;26538;97.83;54.46;Нерой (29794) кол-во измерений:26538
823;29813;Краснозерск;24700;79.16;53.59;Краснозерск (29813) кол-во измерений:24700
824;29814;Карасук;27375;78.01;53.44;Карасук (29814) кол-во измерений:27375
825;29816;Хабары;27294;79.33;53.370000000000005;Хабары (29816) кол-во измерений:27294
826;29822;Камень-на-Оби;28334;81.16;53.49;Камень-на-Оби (29822) кол-во измерений:28334
827;29823;Сузун;17835;82.19;53.46;Сузун (29823) кол-во измерений:17835
828;29827;Баево;20723;80.47;53.17000000000001;Баево (29827) кол-во измерений:20723
829;29832;Тальменка;21725;83.35;53.49;Тальменка (29832) кол-во измерений:21725
830;29836;Заринск;20315;84.56;53.45;Заринск (29836) кол-во измерений:20315
831;29837;Шелаболиха;21132;82.36;53.25;Шелаболиха (29837) кол-во измерений:21132
832;29838;Алтайский ЦГМС;19890;83.52;53.43;Алтайский ЦГМС (29838) кол-во измерений:19890
833;29846;Новокузнецк;19760;86.88;53.82;Новокузнецк (29846) кол-во измерений:19760
834;29848;Тогул;28409;85.56;53.28;Тогул (29848) кол-во измерений:28409
835;29849;Кузедеево;21890;87.11;53.2;Кузедеево (29849) кол-во измерений:21890
836;29854;Междуреченск;20347;88.1;53.38;Междуреченск (29854) кол-во измерений:20347
837;29858;Неожиданный;24089;89.07;53.279999999999994;Неожиданный (29858) кол-во измерений:24089
838;29862;Хакасский;20403;91.3167;53.7667;Хакасский (29862) кол-во измерений:20403
839;29864;Уйбат ст.ж.д.;28079;90.37;53.72;Уйбат ст.ж.д. (29864) кол-во измерений:28079
840;29866;Минусинск;31412;91.7;53.72;Минусинск (29866) кол-во измерений:31412
841;29869;Ермаковское;28132;92.4167;53.3;Ермаковское (29869) кол-во измерений:28132
842;29870;Курагино;20400;92.6833;53.9;Курагино (29870) кол-во измерений:20400
843;29874;Каратузское;20370;92.85;53.6;Каратузское (29874) кол-во измерений:20370
844;29876;Казыр;20381;94.17;53.68000000000001;Казыр (29876) кол-во измерений:20381
845;29892;Хадама;19361;98.81;53.95;Хадама (29892) кол-во измерений:19361
846;29894;Алыгджер;27189;98.22;53.63;Алыгджер (29894) кол-во измерений:27189
847;29915;Славгород;28723;78.6;52.97;Славгород (29915) кол-во измерений:28723
848;29916;Благовещенка;19394;79.51;52.46;Благовещенка (29916) кол-во измерений:19394
849;29923;Ребриха;21113;82.2;53.05;Ребриха (29923) кол-во измерений:21113
850;29928;Мамонтово;19975;81.37;52.42;Мамонтово (29928) кол-во измерений:19975
851;29936;Троицкое;19717;84.41;52.58;Троицкое (29936) кол-во измерений:19717
852;29937;Алейская;28170;82.46;52.309999999999995;Алейская (29937) кол-во измерений:28170
853;29939;Бийск-Зональная;28195;84.56;52.41;Бийск-Зональная (29939) кол-во измерений:28195
854;29941;Целинное;19605;85.37;53.05;Целинное (29941) кол-во измерений:19605
855;29946;Кондома;28451;87.15999999999998;52.49;Кондома (29946) кол-во измерений:28451
856;29954;Таштагол;17829;87.52;52.46;Таштагол (29954) кол-во измерений:17829
857;29955;Усть-Кабырза;19867;88.27;52.49;Усть-Кабырза (29955) кол-во измерений:19867
858;29956;Таштып;28522;89.8833;52.8;Таштып (29956) кол-во измерений:28522
859;29961;Аскиз;18774;90.4833;53.1333;Аскиз (29961) кол-во измерений:18774
860;29963;Маинский рудник;20334;91.5;53.10000000000001;Маинский рудник (29963) кол-во измерений:20334
861;29974;Оленья Речка;29169;93.23;52.8;Оленья Речка (29974) кол-во измерений:29169
862;30014;Чемдальск;20254;103.32;59.6333;Чемдальск (30014) кол-во измерений:20254
863;30028;Ика;24218;106.17;59.28;Ика (30028) кол-во измерений:24218
864;30037;Непа;27192;108.23;59.25;Непа (30037) кол-во измерений:27192
865;30054;Витим;30728;112.583333;59.45;Витим (30054) кол-во измерений:30728
866;30069;Перевоз;26861;116.91;59.0;Перевоз (30069) кол-во измерений:26861
867;30074;Мача;18781;117.60000000000001;59.933333;Мача (30074) кол-во измерений:18781
868;30089;Джикимда;26637;121.77;59.02;Джикимда (30089) кол-во измерений:26637
869;30127;Токма;19790;105.73;58.23;Токма (30127) кол-во измерений:19790
870;30138;Чечуйск;20259;108.68;58.10000000000001;Чечуйск (30138) кол-во измерений:20259
871;30142;Визирный;25475;111.25;58.8833;Визирный (30142) кол-во измерений:25475
872;30157;Мама;27411;112.87;58.32;Мама (30157) кол-во измерений:27411
873;30165;Светлый;18711;116.0;58.39999999999999;Светлый (30165) кол-во измерений:18711
874;30173;Тяня;25032;119.8;59.0;Тяня (30173) кол-во измерений:25032
875;30198;Суон-Тит;19367;123.71999999999998;58.07;Суон-Тит (30198) кол-во измерений:19367
876;30209;Ершово;15249;102.3;57.12;Ершово (30209) кол-во измерений:15249
877;30218;Новая Игирма;14393;103.95;57.11;Новая Игирма (30218) кол-во измерений:14393
878;30219;Максимово;26492;104.96999999999998;57.1;Максимово (30219) кол-во измерений:26492
879;30229;Верхнемарково;25584;107.07;57.33;Верхнемарково (30229) кол-во измерений:25584
880;30230;Киренск;29266;108.07;57.77;Киренск (30230) кол-во измерений:29266
881;30252;Мамакан;19884;114.01999999999998;57.82000000000001;Мамакан (30252) кол-во измерений:19884
882;30305;Кобляково;20378;101.43;56.58;Кобляково (30305) кол-во измерений:20378
883;30308;Вихоревка;19716;101.2;56.199999999999996;Вихоревка (30308) кол-во измерений:19716
884;30309;Братск,обс.;30807;101.75;56.28;Братск,обс. (30309) кол-во измерений:30807
885;30316;Железногорск;14938;104.1;56.4;Железногорск (30316) кол-во измерений:14938
886;30317;Заярск;17645;102.85;56.2;Заярск (30317) кол-во измерений:17645
887;30323;УСТЬ-КУТ;15885;105.8;56.8;УСТЬ-КУТ (30323) кол-во измерений:15885
888;30328;Орлинга;28837;105.83;56.05;Орлинга (30328) кол-во измерений:28837
889;30337;Казачинское;19935;107.62;56.32;Казачинское (30337) кол-во измерений:19935
890;30348;Уоян;19603;111.61999999999999;56.13000000000001;Уоян (30348) кол-во измерений:19603
891;30356;Таксимо;17707;114.83;56.38;Таксимо (30356) кол-во измерений:17707
892;30372;Чара;27776;118.258056;56.906333000000004;Чара (30372) кол-во измерений:27776
893;30374;Большая Лепринда;19976;117.62;56.65;Большая Лепринда (30374) кол-во измерений:19976
894;30379;30379;18912;;;30379 (30379) кол-во измерений:18912
895;30385;Усть-Нюкжа;27234;121.5;56.58333333;Усть-Нюкжа (30385) кол-во измерений:27234
896;30393;30393;27618;;;30393 (30393) кол-во измерений:27618
897;30405;Тангуй;28669;101.03;55.38;Тангуй (30405) кол-во измерений:28669
898;30406;Калтук;19785;101.75;55.68;Калтук (30406) кол-во измерений:19785
899;30418;ПОДВОЛОЧНОЕ;19720;103.37;55.2;ПОДВОЛОЧНОЕ (30418) кол-во измерений:19720
900;30433;Нижнеангарск;29072;109.58;55.78000000000001;Нижнеангарск (30433) кол-во измерений:29072
901;30437;Карам;25775;107.62;55.15;Карам (30437) кол-во измерений:25775
902;30439;Томпа;19323;109.75;55.116667;Томпа (30439) кол-во измерений:19323
903;30455;Уакит;26973;113.62;55.47999999999999;Уакит (30455) кол-во измерений:26973
904;30456;Ую;16678;114.5;55.58;Ую (30456) кол-во измерений:16678
905;30457;Баунт;28312;113.138889;55.263333;Баунт (30457) кол-во измерений:28312
906;30461;Тилишма;19079;115.46666666666668;55.85000000000001;Тилишма (30461) кол-во измерений:19079
907;30469;Калакан;16413;116.7667;55.1167;Калакан (30469) кол-во измерений:16413
908;30471;Средний Калар;26499;117.3667;55.86670000000001;Средний Калар (30471) кол-во измерений:26499
909;30484;Средняя Олекма;19725;120.55;55.43;Средняя Олекма (30484) кол-во измерений:19725
910;30493;Нагорный;28032;124.915752;55.948258;Нагорный (30493) кол-во измерений:28032
911;30499;Тында;25445;124.6666667;55.18333333;Тында (30499) кол-во измерений:25445
912;30504;Тулун;28635;100.63;54.6;Тулун (30504) кол-во измерений:28635
913;30505;Куйтун;14830;101.5;54.3;Куйтун (30505) кол-во измерений:14830
914;30507;Икей;27180;100.08;54.18;Икей (30507) кол-во измерений:27180
915;30514;Усть-Уда;28047;103.01;54.160000000000004;Усть-Уда (30514) кол-во измерений:28047
916;30519;Лукиново;20346;104.7;54.18;Лукиново (30519) кол-во измерений:20346
917;30521;Жигалово;26392;105.17;54.8;Жигалово (30521) кол-во измерений:26392
918;30526;Тырка;20201;107.07;54.48;Тырка (30526) кол-во измерений:20201
919;30536;Баргузинский Заповедник;19953;109.533333;54.333333;Баргузинский Заповедник (30536) кол-во измерений:19953
920;30537;Солнечная;27122;108.26;54.029999999999994;Солнечная (30537) кол-во измерений:27122
921;30547;Курумкан;19329;110.29999999999998;54.32;Курумкан (30547) кол-во измерений:19329
922;30552;30552;18385;;;30552 (30552) кол-во измерений:18385
923;30554;Багдарин;28424;113.586231;54.429931;Багдарин (30554) кол-во измерений:28424
924;30555;Троицкий прииск;27934;113.15;54.58;Троицкий прииск (30555) кол-во измерений:27934
925;30565;Усть-Каренга;20000;116.53;54.43;Усть-Каренга (30565) кол-во измерений:20000
926;30567;30567;19913;;;30567 (30567) кол-во измерений:19913
927;30576;Тупик;26691;119.90000000000002;54.42999999999999;Тупик (30576) кол-во измерений:26691
928;30585;30585;19458;;;30585 (30585) кол-во измерений:19458
929;30603;Зима;30984;102.05;53.92999999999999;Зима (30603) кол-во измерений:30984
930;30605;Сарам;20259;101.2;53.35000000000001;Сарам (30605) кол-во измерений:20259
931;30606;Залари;20220;102.5;53.55;Залари (30606) кол-во измерений:20220
932;30612;Балаганск;28316;103.07;54.0;Балаганск (30612) кол-во измерений:28316
933;30617;Черемхово;20314;103.03;53.18;Черемхово (30617) кол-во измерений:20314
934;30618;Бохан;20374;103.77;53.13;Бохан (30618) кол-во измерений:20374
935;30620;Сарма;20027;106.83000000000001;53.099999999999994;Сарма (30620) кол-во измерений:20027
936;30622;Качуг;19855;105.9;53.970000000000006;Качуг (30622) кол-во измерений:19855
937;30627;Баяндай;33089;105.53;53.1;Баяндай (30627) кол-во измерений:33089
938;30629;Хужир;20135;107.32999999999998;53.2;Хужир (30629) кол-во измерений:20135
939;30632;Большой Ушканий о-в;22903;108.57999999999998;53.85;Большой Ушканий о-в (30632) кол-во измерений:22903
940;30635;Усть-Баргузин;28629;109.02;53.419999999999995;Усть-Баргузин (30635) кол-во измерений:28629
941;30636;Баргузин;30184;109.63;53.62;Баргузин (30636) кол-во измерений:30184
942;30637;Узур;19380;107.73;53.32;Узур (30637) кол-во измерений:19380
943;30643;Усть-Джилинда;19243;111.95;53.67;Усть-Джилинда (30643) кол-во измерений:19243
944;30650;Романовка;28312;112.78;53.2;Романовка (30650) кол-во измерений:28312
945;30651;Усть-Антосе;16751;113.2;53.98;Усть-Антосе (30651) кол-во измерений:16751
946;30655;30655;19079;;;30655 (30655) кол-во измерений:19079
947;30664;Тунгокочен;28381;115.597667;53.536028;Тунгокочен (30664) кол-во измерений:28381
948;30667;30667;19549;;;30667 (30667) кол-во измерений:19549
949;30669;Зилово;27280;117.4833;53.0667;Зилово (30669) кол-во измерений:27280
950;30673;30673;33174;;;30673 (30673) кол-во измерений:33174
951;30675;Ксеньевская;26653;118.72;53.55;Ксеньевская (30675) кол-во измерений:26653
952;30676;30676;13469;;;30676 (30676) кол-во измерений:13469
953;30679;Горбица;25619;119.2167;53.10000000000001;Горбица (30679) кол-во измерений:25619
954;30682;Амазар;28335;120.87;53.87;Амазар (30682) кол-во измерений:28335
955;30683;Ерофей Павлович;28711;121.92999999999999;53.97;Ерофей Павлович (30683) кол-во измерений:28711
956;30686;Игнашино;20229;122.4;53.46999999999999;Игнашино (30686) кол-во измерений:20229
957;30688;Покровка;23365;121.55;53.35;Покровка (30688) кол-во измерений:23365
958;30692;Сковородино;32169;123.9666667;54.0;Сковородино (30692) кол-во измерений:32169
959;30695;Джалинда;28171;123.90000000000002;53.466666669999995;Джалинда (30695) кол-во измерений:28171
960;30703;Инга;26328;101.98;52.97;Инга (30703) кол-во измерений:26328
961;30710;Иркутск-Обсерватория;45929;104.31999999999998;52.26;Иркутск-Обсерватория (30710) кол-во измерений:45929
962;30712;Усолье-Сибирское;14423;103.7;52.79999999999999;Усолье-Сибирское (30712) кол-во измерений:14423
963;30713;Усть-Ордынский;26662;104.76;52.81;Усть-Ордынский (30713) кол-во измерений:26662
964;30714;Дабады;18636;102.7;52.1;Дабады (30714) кол-во измерений:18636
965;30715;Ангарск;20344;103.85;52.48;Ангарск (30715) кол-во измерений:20344
966;30716;ХОМУТОВО;19976;104.36;52.46;ХОМУТОВО (30716) кол-во измерений:19976
967;30718;Патроны;20296;104.47;52.13;Патроны (30718) кол-во измерений:20296
968;30721;Еланцы;14914;106.43;52.8;Еланцы (30721) кол-во измерений:14914
969;30726;Сухая;25295;107.1;52.55;Сухая (30726) кол-во измерений:25295
970;30727;Большое Голоустное;28098;105.42;52.03;Большое Голоустное (30727) кол-во измерений:28098
971;30729;Кабанск;28385;106.65;52.05;Кабанск (30729) кол-во измерений:28385
972;30731;Горячинск;28537;108.28;52.98;Горячинск (30731) кол-во измерений:28537
973;30733;Нестерово;19946;107.87;52.38;Нестерово (30733) кол-во измерений:19946
974;30738;Новая Курба;19979;108.52000000000001;52.05;Новая Курба (30738) кол-во измерений:19979
975;30739;Хоринск;24783;109.78000000000002;52.17;Хоринск (30739) кол-во измерений:24783
976;30741;Замакта;26315;109.97;52.77;Замакта (30741) кол-во измерений:26315
977;30745;Сосново-Озерское;28854;111.55;52.53;Сосново-Озерское (30745) кол-во измерений:28854
978;30755;Бургень;25280;113.77000000000001;52.43;Бургень (30755) кол-во измерений:25280
979;30757;30757;19215;;;30757 (30757) кол-во измерений:19215
980;30758;30758;32527;;;30758 (30758) кол-во измерений:32527
981;30764;Усугли;26894;115.17;52.64999999999999;Усугли (30764) кол-во измерений:26894
982;30765;Зюльзя;24224;116.20000000000002;52.55;Зюльзя (30765) кол-во измерений:24224
983;30766;Чернышевск;23854;117.0;52.53;Чернышевск (30766) кол-во измерений:23854
984;30768;Нерчинск;28020;116.53;52.0;Нерчинск (30768) кол-во измерений:28020
985;30772;Усть-Карск;26604;118.79999999999998;52.7;Усть-Карск (30772) кол-во измерений:26604
986;30777;30777;28729;;;30777 (30777) кол-во измерений:28729
987;30778;Батакан;20073;118.83;52.07;Батакан (30778) кол-во измерений:20073
988;30781;Урюпино;24992;120.03000000000002;52.75;Урюпино (30781) кол-во измерений:24992
989;30802;Монды;27328;100.98;51.68;Монды (30802) кол-во измерений:27328
990;30806;Кырен;18239;102.15;51.68;Кырен (30806) кол-во измерений:18239
991;30811;Тунка;29053;102.53;51.73;Тунка (30811) кол-во измерений:29053
992;30812;Култук;28764;103.7;51.720000000000006;Култук (30812) кол-во измерений:28764
993;30814;Исток Ангары;20252;104.81999999999998;51.87;Исток Ангары (30814) кол-во измерений:20252
994;30815;Хамар-Дабан;28475;103.6;51.53;Хамар-Дабан (30815) кол-во измерений:28475
995;30818;Байкальск;19283;104.15;51.65;Байкальск (30818) кол-во измерений:19283
996;30822;Бабушкин;31965;105.85;51.7;Бабушкин (30822) кол-во измерений:31965
997;30823;Улан-Удэ;33378;107.6;51.83;Улан-Удэ (30823) кол-во измерений:33378
998;30824;Танхой;28072;105.1;51.55;Танхой (30824) кол-во измерений:28072
999;30825;Иволгинск;16257;107.27;51.75;Иволгинск (30825) кол-во измерений:16257
1000;30826;Тарбагатай;20077;107.37;51.48;Тарбагатай (30826) кол-во измерений:20077
1001;30829;Новоселенгинск;28077;106.65;51.1;Новоселенгинск (30829) кол-во измерений:28077
1002;30833;Кижинга;19400;109.88333333333335;51.86666666666667;Кижинга (30833) кол-во измерений:19400
1003;30837;Мухоршибирь;28457;107.82;51.03;Мухоршибирь (30837) кол-во измерений:28457
1004;30838;Петровский з-д;25707;108.87000000000002;51.32;Петровский з-д (30838) кол-во измерений:25707
1005;30843;Могзон;28627;112.0;51.73;Могзон (30843) кол-во измерений:28627
1006;30844;Хилок;27877;110.47;51.37;Хилок (30844) кол-во измерений:27877
1007;30846;Улеты;25530;112.47;51.35;Улеты (30846) кол-во измерений:25530
1008;30853;Карымская Центральная Радиостанция;28274;114.32;51.63;Карымская Центральная Радиостанция (30853) кол-во измерений:28274
1009;30858;Дарасун;18581;113.71999999999998;51.2;Дарасун (30858) кол-во измерений:18581
1010;30859;Агинское;26912;114.52;51.1;Агинское (30859) кол-во измерений:26912
1011;30862;Шилка;24341;116.03;51.87;Шилка (30862) кол-во измерений:24341
1012;30866;Балей;19064;116.70000000000002;51.55;Балей (30866) кол-во измерений:19064
1013;30874;Шелопугино;26100;117.57;51.65;Шелопугино (30874) кол-во измерений:26100
1014;30875;Ямкун;27266;118.33;51.53;Ямкун (30875) кол-во измерений:27266
1015;30879;Нерчинский з-д;31009;119.62;51.32000000000001;Нерчинский з-д (30879) кол-во измерений:31009
1016;30911;Санага;28366;102.78;50.72;Санага (30911) кол-во измерений:28366
1017;30915;Цакир;25301;103.59999999999998;50.43;Цакир (30915) кол-во измерений:25301
1018;30924;Петропавловка;20035;105.3;50.62;Петропавловка (30924) кол-во измерений:20035
1019;30925;Кяхта;30238;106.45;50.37;Кяхта (30925) кол-во измерений:30238
1020;30929;Хамнигадайская;19857;107.44999999999999;50.12;Хамнигадайская (30929) кол-во измерений:19857
1021;30934;Бичура;27427;107.58000000000001;50.6;Бичура (30934) кол-во измерений:27427
1022;30935;Красный Чикой;28382;108.75;50.37;Красный Чикой (30935) кол-во измерений:28382
1023;30938;Менза;27949;108.85;49.43;Менза (30938) кол-во измерений:27949
1024;30941;30941;19344;;;30941 (30941) кол-во измерений:19344
1025;30944;Черемхово;19675;110.15;50.58;Черемхово (30944) кол-во измерений:19675
1026;30948;Букукун;26985;111.13;49.45;Букукун (30948) кол-во измерений:26985
1027;30949;Кыра;29247;111.97;49.57;Кыра (30949) кол-во измерений:29247
1028;30952;ДУЛЬДУРГА;19726;113.58;50.68;ДУЛЬДУРГА (30952) кол-во измерений:19726
1029;30954;Мангут;26405;112.67;49.7;Мангут (30954) кол-во измерений:26405
1030;30957;Акша;28289;113.27;50.27;Акша (30957) кол-во измерений:28289
1031;30961;Оловянная;27927;115.58;50.95;Оловянная (30961) кол-во измерений:27927
1032;30965;30965;31803;;;30965 (30965) кол-во измерений:31803
1033;30967;Соловьевск;26881;115.75;49.9;Соловьевск (30967) кол-во измерений:26881
1034;30968;Забайкальск;18324;117.29841699999999;49.669361;Забайкальск (30968) кол-во измерений:18324
1035;30971;Александровский з-д;26991;117.93;50.92;Александровский з-д (30971) кол-во измерений:26991
1036;30972;Доно;26789;118.5833;50.8833;Доно (30972) кол-во измерений:26789
1037;30975;Приаргунск;26441;119.079778;50.349278;Приаргунск (30975) кол-во измерений:26441
1038;30977;КРАСНОКАМЕНСК;10799;118.03;50.1;КРАСНОКАМЕНСК (30977) кол-во измерений:10799
1039;30978;Кайластуй;25991;118.3915;49.833694;Кайластуй (30978) кол-во измерений:25991
1040;31004;Алдан;28248;125.39861100000002;58.603891999999995;Алдан (31004) кол-во измерений:28248
1041;31005;Томмот;27844;126.26666999999999;58.96667;Томмот (31005) кол-во измерений:27844
1042;31011;Буяга;25841;121.12166700000002;59.645833;Буяга (31011) кол-во измерений:25841
1043;31016;Угино;19408;128.5;58.63;Угино (31016) кол-во измерений:19408
1044;31026;Учур;27574;130.62;58.730000000000004;Учур (31026) кол-во измерений:27574
1045;31041;Усть-Миль;24281;133.03334;59.63334;Усть-Миль (31041) кол-во измерений:24281
1046;31054;Усть-Юдома;17825;135.15;59.18;Усть-Юдома (31054) кол-во измерений:17825
1047;31062;Югоренок;23652;137.67;59.77;Югоренок (31062) кол-во измерений:23652
1048;31083;Хейджан;17755;144.7833333;59.966666669999995;Хейджан (31083) кол-во измерений:17755
1049;31087;Улья;18865;141.85;58.81666667;Улья (31087) кол-во измерений:18865
1050;31088;Охотск;34904;143.2;59.36666667;Охотск (31088) кол-во измерений:34904
1051;31092;Талон;22068;148.63;59.76;Талон (31092) кол-во измерений:22068
1052;31096;Спафарьева, остров;17631;149.035;59.15555556;Спафарьева, остров (31096) кол-во измерений:17631
1053;31102;Канку;21813;125.966667;57.65;Канку (31102) кол-во измерений:21813
1054;31137;Токо;17950;131.13;56.28;Токо (31137) кол-во измерений:17950
1055;31152;Нелькан;24862;136.15;57.65;Нелькан (31152) кол-во измерений:24862
1056;31158;Батомга;21848;136.3;56.6;Батомга (31158) кол-во измерений:21848
1057;31168;Аян;30114;138.15;56.45;Аян (31168) кол-во измерений:30114
1058;31174;Большой Шантар;29139;137.5333333;54.83333333;Большой Шантар (31174) кол-во измерений:29139
1059;31253;Бомнак;34096;128.8666667;54.71666667;Бомнак (31253) кол-во измерений:34096
1060;31257;БЕРЕГОВОЙ;27933;127.4;54.38;БЕРЕГОВОЙ (31257) кол-во измерений:27933
1061;31263;Локшак;23375;130.45;54.73333333;Локшак (31263) кол-во измерений:23375
1062;31285;Удское;26171;134.4166667;54.5;Удское (31285) кол-во измерений:26171
1063;31286;Чумикан;27595;135.3;54.72;Чумикан (31286) кол-во измерений:27595
1064;31295;Магдагачи;27954;125.82;53.45;Магдагачи (31295) кол-во измерений:27954
1065;31299;Тыгда;24934;126.35;53.10000000000001;Тыгда (31299) кол-во измерений:24934
1066;31301;Пикан;23987;127.3;53.7;Пикан (31301) кол-во измерений:23987
1067;31318;Дугда;25286;130.0;53.35;Дугда (31318) кол-во измерений:25286
1068;31329;Экимчан;31197;132.9333333;53.08333333;Экимчан (31329) кол-во измерений:31197
1069;31348;Бурукан;27587;136.0333333;53.05;Бурукан (31348) кол-во измерений:27587
1070;31362;Литке;18772;140.33333;53.95;Литке (31362) кол-во измерений:18772
1071;31366;Байдуков;25884;141.48334;53.3;Байдуков (31366) кол-во измерений:25884
1072;31369;Николаевск-на-Амуре;31558;140.693888;53.1475;Николаевск-на-Амуре (31369) кол-во измерений:31558
1073;31371;Черняево;30734;126.0;52.78333333;Черняево (31371) кол-во измерений:30734
1074;31373;Октябрьский прииск;20255;128.65;53.0;Октябрьский прииск (31373) кол-во измерений:20255
1075;31388;Норск;28420;129.9166667;52.35;Норск (31388) кол-во измерений:28420
1076;31392;Стойба;27234;131.7166667;52.8;Стойба (31392) кол-во измерений:27234
1077;31397;Бысса;28063;130.8666667;52.45;Бысса (31397) кол-во измерений:28063
1078;31416;Им.П.Осипенко;28789;136.5;52.41666667;Им.П.Осипенко (31416) кол-во измерений:28789
1079;31418;Веселая Горка;19505;135.8;52.3;Веселая Горка (31418) кол-во измерений:19505
1080;31423;Удинское;28449;138.85001;52.91667;Удинское (31423) кол-во измерений:28449
1081;31436;Джаоре;26998;141.28334;52.66667;Джаоре (31436) кол-во измерений:26998
1082;31439;Богородское;27915;140.4666667;52.38333333;Богородское (31439) кол-во измерений:27915
1083;31442;Шимановск;28349;127.65;51.980000000000004;Шимановск (31442) кол-во измерений:28349
1084;31443;Мазаново;29349;128.8166667;51.63333332999999;Мазаново (31443) кол-во измерений:29349
1085;31445;Свободный;26185;128.11;51.45;Свободный (31445) кол-во измерений:26185
1086;31469;Чегдомын;20245;132.95;51.17;Чегдомын (31469) кол-во измерений:20245
1087;31474;Усть-Умальта;28375;133.2666667;51.63333333;Усть-Умальта (31474) кол-во измерений:28375
1088;31478;Софийский прииск;16607;133.98;52.27;Софийский прииск (31478) кол-во измерений:16607
1089;31484;Хуларин;20035;135.08;51.42;Хуларин (31484) кол-во измерений:20035
1090;31489;Горин;25811;136.8;51.20000000000001;Горин (31489) кол-во измерений:25811
1091;31502;Мариинск;20238;140.18333;51.73333;Мариинск (31502) кол-во измерений:20238
1092;31504;Циммермановка;26146;139.25;51.333330000000004;Циммермановка (31504) кол-во измерений:26146
1093;31510;Благовещенск;36890;127.56666666666666;50.25;Благовещенск (31510) кол-во измерений:36890
1094;31511;Сергеевка;23101;127.3;50.78333;Сергеевка (31511) кол-во измерений:23101
1095;31513;Белогорск;27802;128.4666667;50.91666667;Белогорск (31513) кол-во измерений:27802
1096;31521;Братолюбовка;27013;129.33;50.78000000000001;Братолюбовка (31521) кол-во измерений:27013
1097;31527;Завитая;28054;129.47;50.12;Завитая (31527) кол-во измерений:28054
1098;31534;Сектагли;17755;131.0166667;50.43333333;Сектагли (31534) кол-во измерений:17755
1099;31538;Сутур;26835;132.1333333;50.06666666999999;Сутур (31538) кол-во измерений:26835
1100;31548;Верховье Урми;19639;133.58333;50.05;Верховье Урми (31548) кол-во измерений:19639
1101;31561;Комсомольск-на-Амуре;24140;137.0333333;50.53333333;Комсомольск-на-Амуре (31561) кол-во измерений:24140
1102;31562;Нижнетамбовское;27113;138.18916;50.92277;Нижнетамбовское (31562) кол-во измерений:27113
1103;31566;Сегжема;20230;138.4;50.35;Сегжема (31566) кол-во измерений:20230
1104;31583;Малиновка;20089;129.9166667;49.78333333;Малиновка (31583) кол-во измерений:20089
1105;31586;Константиновка;20311;127.96667;49.61666;Константиновка (31586) кол-во измерений:20311
1106;31587;Поярково;23701;128.65;49.61666667;Поярково (31587) кол-во измерений:23701
1107;31594;Архара;28827;130.08;49.42;Архара (31594) кол-во измерений:28827
1108;31624;Урми;27113;133.2333333;49.4;Урми (31624) кол-во измерений:27113
1109;31632;Кур;25619;134.6333333;49.93333333000001;Кур (31632) кол-во измерений:25619
1110;31647;Литовко;17136;135.18;49.23;Литовко (31647) кол-во измерений:17136
1111;31655;Троицкое;28265;136.5666667;49.45;Троицкое (31655) кол-во измерений:28265
1112;31683;Тумнин;20695;140.0833333;49.65;Тумнин (31683) кол-во измерений:20695
1113;31702;Облучье;27755;131.08;49.0;Облучье (31702) кол-во измерений:27755
1114;31707;Екатерино-Никольское;28241;130.9666667;47.73333333;Екатерино-Никольское (31707) кол-во измерений:28241
1115;31710;Ленинское;19087;132.6166667;47.95;Ленинское (31710) кол-во измерений:19087
1116;31713;Биробиджан;20573;132.95;48.73;Биробиджан (31713) кол-во измерений:20573
1117;31725;Смидович;19920;133.8333333;48.61666667;Смидович (31725) кол-во измерений:19920
1118;31733;Елабуга;20104;135.8833333;48.81666667;Елабуга (31733) кол-во измерений:20104
1119;31735;31735;22311;;;31735 (31735) кол-во измерений:22311
1120;31754;Тивяку;27166;137.05;48.6;Тивяку (31754) кол-во измерений:27166
1121;31766;Иоли;20011;138.98334;48.63334;Иоли (31766) кол-во измерений:20011
1122;31770;Советская Гавань;31926;140.3;49.0;Советская Гавань (31770) кол-во измерений:31926
1123;31786;Вяземская;27088;134.77;47.52;Вяземская (31786) кол-во измерений:27088
1124;31788;Лермонтовка;20320;134.3333333;47.15;Лермонтовка (31788) кол-во измерений:20320
1125;31790;Георгиевка;19834;135.23;47.95;Георгиевка (31790) кол-во измерений:19834
1126;31792;Бичевая;20159;135.6333333;47.76666667;Бичевая (31792) кол-во измерений:20159
1127;31801;Гвасюги;27313;136.18;47.67;Гвасюги (31801) кол-во измерений:27313
1128;31815;Сукпай;19506;137.5;47.7;Сукпай (31815) кол-во измерений:19506
1129;31825;Агзу;19145;138.389389;47.595778;Агзу (31825) кол-во измерений:19145
1130;31832;Бикин;37500;134.27;46.8;Бикин (31832) кол-во измерений:37500
1131;31845;Красный Яр;27024;135.3166667;46.53333333;Красный Яр (31845) кол-во измерений:27024
1132;31848;Глубинное;18280;135.38333;46.06667;Глубинное (31848) кол-во измерений:18280
1133;31856;Охотничий;27084;136.98334;46.51667;Охотничий (31856) кол-во измерений:27084
1134;31866;Сосуново;18571;138.3333333;46.53333333;Сосуново (31866) кол-во измерений:18571
1135;31869;Монерон;19530;141.26666;46.25;Монерон (31869) кол-во измерений:19530
1136;31873;Дальнереченск;27183;133.73333333333332;45.86666666666667;Дальнереченск (31873) кол-во измерений:27183
1137;31875;Лесозаводск;19854;133.38333;45.46667;Лесозаводск (31875) кол-во измерений:19854
1138;31878;Кировский;26883;133.5;45.09999847;Кировский (31878) кол-во измерений:26883
1139;31884;Малиново;30848;134.301583;45.411722;Малиново (31884) кол-во измерений:30848
1140;31895;Мельничное;25660;135.5;45.45;Мельничное (31895) кол-во измерений:25660
1141;31909;Терней;28547;136.36;45.0;Терней (31909) кол-во измерений:28547
1142;31913;Турий Рог;22881;131.9833333;45.21666667;Турий Рог (31913) кол-во измерений:22881
1143;31915;Пограничный;35979;131.3833333;44.4;Пограничный (31915) кол-во измерений:35979
1144;31917;Полтавка;18146;131.324778;44.02625;Полтавка (31917) кол-во измерений:18146
1145;31921;Астраханка;27962;132.0666667;44.71666667;Астраханка (31921) кол-во измерений:27962
1146;31923;Новосельское;17106;132.705578;44.7685;Новосельское (31923) кол-во измерений:17106
1147;31924;Хороль;26860;132.067889;44.434250000000006;Хороль (31924) кол-во измерений:26860
1148;31928;Халкидон;18801;132.39999;44.26667;Халкидон (31928) кол-во измерений:18801
1149;31931;Свиягино;26555;133.0833333;44.8;Свиягино (31931) кол-во измерений:26555
1150;31935;Яковлевка;18815;133.4833333;44.41666667;Яковлевка (31935) кол-во измерений:18815
1151;31939;Чугуевка;18555;133.8666667;44.15;Чугуевка (31939) кол-во измерений:18555
1152;31942;Самарка;24569;134.2;44.75;Самарка (31942) кол-во измерений:24569
1153;31943;Рощино;28151;134.882333;45.90136100000001;Рощино (31943) кол-во измерений:28151
1154;31946;Кавалерово;19460;135.036222;44.268028;Кавалерово (31946) кол-во измерений:19460
1155;31958;Богополь;17575;135.45;44.25;Богополь (31958) кол-во измерений:17575
1156;31959;Рудная пристань;29063;135.85;44.36666667;Рудная пристань (31959) кол-во измерений:29063
1157;31960;Владивосток;35259;131.93333333333334;43.11666666666667;Владивосток (31960) кол-во измерений:35259
1158;31961;Тимирязевский;36687;131.96666666666667;43.88333333333333;Тимирязевский (31961) кол-во измерений:36687
1159;31967;Гамов;28620;131.21666;42.55;Гамов (31967) кол-во измерений:28620
1160;31969;Посьет;27605;130.8;42.65;Посьет (31969) кол-во измерений:27605
1161;31970;Находка;28152;132.9;42.8;Находка (31970) кол-во измерений:28152
1162;31971;Барабаш;15456;131.474417;43.196889;Барабаш (31971) кол-во измерений:15456
1163;31977;Садгород;22528;132.05;43.266666666666666;Садгород (31977) кол-во измерений:22528
1164;31981;Анучино;27791;133.0666667;43.96666667;Анучино (31981) кол-во измерений:27791
1165;31986;Лазо;17431;133.88333;43.4;Лазо (31986) кол-во измерений:17431
1166;31987;Партизанск;27854;133.0166667;43.14999999999999;Партизанск (31987) кол-во измерений:27854
1167;31989;Преображение;18850;133.9;42.9;Преображение (31989) кол-во измерений:18850
1168;32010;Оха;24210;142.9;53.5;Оха (32010) кол-во измерений:24210
1169;32014;Москальво;26953;142.5;53.56667000000001;Москальво (32014) кол-во измерений:26953
1170;32017;Одопту;14240;143.2;53.4;Одопту (32017) кол-во измерений:14240
1171;32027;Погиби;28035;141.6333333;52.21666667;Погиби (32027) кол-во измерений:28035
1172;32036;Вал;27059;143.08;52.33;Вал (32036) кол-во измерений:27059
1173;32053;Ноглики;29888;143.13;51.92;Ноглики (32053) кол-во измерений:29888
1174;32054;Ныш;18393;142.75;51.53;Ныш (32054) кол-во измерений:18393
1175;32059;Комрво;18763;143.56667;51.11666;Комрво (32059) кол-во измерений:18763
1176;32061;Александровск        ;39892;142.1666667;50.9;Александровск         (32061) кол-во измерений:39892
1177;32069;Пильво;26886;142.1666667;50.04999999999999;Пильво (32069) кол-во измерений:26886
1178;32071;Тымовское;34096;142.71666666666667;50.73333333333333;Тымовское (32071) кол-во измерений:34096
1179;32076;Пограничное;27202;143.7666667;50.4;Пограничное (32076) кол-во измерений:27202
1180;32077;Онор;27830;142.58;50.23;Онор (32077) кол-во измерений:27830
1181;32088;Углегорск;25319;142.0333333;49.06666666999999;Углегорск (32088) кол-во измерений:25319
1182;32092;ПЕРВОМАЙСК;12968;143.27;49.97;ПЕРВОМАЙСК (32092) кол-во измерений:12968
1183;32098;Поронайск;38340;143.1;49.21666667;Поронайск (32098) кол-во измерений:38340
1184;32116;Макаров;19399;142.78334;48.61666;Макаров (32116) кол-во измерений:19399
1185;32121;Ильинский;24828;142.2;47.98333333;Ильинский (32121) кол-во измерений:24828
